{"sets":[{"bsID":1,"bsName":"Custom","bsDescription":"Custom","bsPublic":0,"owner":"unknown","sort":0,"buildings":[]},{"bsID":20,"bsName":"Power Plants","bsPublic":1,"owner":"sa","sort":60,"buildings":[{"site":"CEN","zone":"ZONE 4","buildingID":196,"facid":"1425","name":"CENTRAL POWER PLANT","abbr":"CPP","address":"TOWER PARKWAY,120","searchable":"1425 CENTRAL POWER PLANT TOWER PARKWAY,120  CENTRAL POWER PLANT CPP 120 TOWER PARKWAY TOWER PKWY, 120 CENTRAL POWER PLANT - CPP","gsf":78416,"nsf":68267,"latitude":41.313039,"longitude":-72.928887,"distance":99.0},{"site":"MED","zone":"MEDICAL","buildingID":398,"facid":"3160","name":"STERLING POWER PLANT","abbr":"SPP","address":"CONGRESS AVENUE, 309","searchable":"3160 STERLING POWER PLANT CONGRESS AVENUE, 309  STERLING POWER PLANT SPP 309 CONGRESS AVENUE CONGRESS AVE, 309 STERLING POWER PLANT - SPP","gsf":54410,"nsf":48865,"latitude":41.30302,"longitude":-72.932705,"distance":99.0}]},{"bsID":3,"bsName":"Served By CPP","bsPublic":1,"owner":"sa","sort":60,"buildings":[{"site":"CEN","zone":"ZONE 2","buildingID":218,"facid":"1530","name":"A.K. WATSON HALL","abbr":"AKW","address":"PROSPECT STREET,  51","searchable":"1530 A.K. WATSON HALL PROSPECT STREET,  51 SHEFFIELD CHEM LAB; SHEFFIELD LAB OF ENG. MECH. WATSON HALL, ARTHUR K. AKW 51 PROSPECT STREET PROSPECT ST,  51 A.K. WATSON HALL","gsf":52634,"nsf":41679,"latitude":41.313064,"longitude":-72.924933,"distance":99.0},{"site":"CEN","zone":"ZONE 2","buildingID":148,"facid":"1125","name":"ALLWIN HALL","abbr":"ALW","address":"HILLHOUSE AVENUE, 31","searchable":"1125 ALLWIN HALL HILLHOUSE AVENUE, 31 ABIGAIL WHELPLEY HOUSE ALLWIN HALL ALW 31 HILLHOUSE AVENUE HILLHOUSE AVE, 31 ","gsf":7433,"nsf":6369,"latitude":41.313919,"longitude":-72.923116,"distance":99.0},{"site":"CEN","zone":"ZONE 4","buildingID":4788,"facid":"2403","name":"ARNOLD HALL","abbr":"ARN","address":"ELM STREET, 304","searchable":"2403 ARNOLD HALL ELM STREET, 304  ROBERT M. ARNOLD HALL ARN 304 ELM STREET ELM ST, 304 ","gsf":26159,"nsf":20850,"latitude":41.311041,"longitude":-72.93145,"distance":99.0},{"site":"CEN","zone":"ZONE 4","buildingID":195,"facid":"1413","name":"BAKER HALL","abbr":"BAKER","address":"TOWER PARKWAY,100","searchable":"1413 BAKER HALL TOWER PARKWAY,100 NEW RESIDENCE HALL/ASHMUN STREET, 40 ROBERT C \u0026 CHRISTINA BAKER HALL AT YALE LAW SCHOOL BAKER 100 TOWER PARKWAY TOWER PKWY,100 NEW RESIDENCE HALL","gsf":137443,"nsf":113722,"latitude":41.313749,"longitude":-72.929123,"distance":99.0},{"site":"CEN","zone":"ZONE 1","buildingID":120,"facid":"1030","name":"BASS CENTER","abbr":"BASS","address":"WHITNEY AVENUE, 266","searchable":"1030 BASS CENTER WHITNEY AVENUE, 266  NANCY LEE \u0026 PERRY R. BASS CENTER FOR ... BASS 266 WHITNEY AVENUE WHITNEY AVE, 266 BASS CENTER MOLECULAR \u0026 STRUCTURAL BIOLOGY - MBB","gsf":91153,"nsf":77425,"latitude":41.318122,"longitude":-72.921837,"distance":99.0},{"site":"CEN","zone":"ZONE 3","buildingID":280,"facid":"2045","name":"BASS LIBRARY","abbr":"BASSLB","address":"WALL STREET, 110","searchable":"2045 BASS LIBRARY WALL STREET, 110 CROSS CAMPUS LIBRARY - CCL ANNE T. \u0026 ROBERT M. BASS LIBRARY BASSLB 110 WALL STREET WALL ST, 110 CROSS CAMPUS LIBRARY - CCL","gsf":64505,"nsf":55650,"latitude":41.310685,"longitude":-72.927608,"distance":99.0},{"site":"CEN","zone":"ZONE 3","buildingID":351,"facid":"2610","name":"BATTELL CHAPEL","abbr":"BATTELL","address":"COLLEGE STREET, 400","searchable":"2610 BATTELL CHAPEL COLLEGE STREET, 400  BATTELL CHAPEL, JOSEPH BATTELL 400 COLLEGE STREET COLLEGE ST, 400 JOSEPH BATTELL CHAPEL","gsf":28097,"nsf":22782,"latitude":41.309372,"longitude":-72.927515,"distance":99.0},{"site":"CEN","zone":"ZONE 1","buildingID":217,"facid":"1525","name":"BECTON E\u0026AS CENTER","abbr":"BCT","address":"PROSPECT STREET,  15","searchable":"1525 BECTON E\u0026AS CENTER PROSPECT STREET,  15  BECTON ENGINEERING AND APPLIED SCIENCE CENTER, HENRY P. BCT 15 PROSPECT STREET PROSPECT ST,  15 BECTON ENG \u0026 APPLIED SCIENCE CENTER - BC - E\u0026AS","gsf":141973,"nsf":119984,"latitude":41.312583,"longitude":-72.925221,"distance":99.0},{"site":"CEN","zone":"ZONE 3","buildingID":270,"facid":"2005","name":"BEINECKE LIBRARY","abbr":"BRBL","address":"WALL STREET, 121","searchable":"2005 BEINECKE LIBRARY WALL STREET, 121  BEINECKE RARE BOOK AND MANUSCRIPT LIBRARY BRBL 121 WALL STREET WALL ST,121 BEINECKE RARE BOOK \u0026 MANUSCRIPT LIBRARY - BRBL","gsf":105367,"nsf":91565,"latitude":41.311564,"longitude":-72.927303,"distance":99.0},{"site":"CEN","zone":"ZONE 3","buildingID":279,"facid":"2040","name":"BERKELEY COLLEGE","abbr":"BK","address":"ELM STREET, 205","searchable":"2040 BERKELEY COLLEGE ELM STREET, 205  BERKELEY COLLEGE, GEORGE BK 205 ELM STREET ELM ST, 205 BERKELEY COLLEGE - BK","gsf":146338,"nsf":113453,"latitude":41.310305,"longitude":-72.928105,"distance":99.0},{"site":"CEN","zone":"OUTSOURCE","buildingID":36,"facid":"0435","name":"BETTS HOUSE","abbr":"BETTS","address":"PROSPECT STREET, 393","searchable":"0435 BETTS HOUSE PROSPECT STREET, 393 DAVIES HOUSE, JOHN M.; CULINARY INST OF AMER BETTS HOUSE BETTS 393 PROSPECT STREET PROSPECT ST, 393 BETTS HOUSE - DAVIES MANSION","gsf":21889,"nsf":17489,"latitude":41.322497,"longitude":-72.922121,"distance":99.0},{"site":"CEN","zone":"ZONE 3","buildingID":356,"facid":"2635","name":"BINGHAM HALL,CHARLES","abbr":"BM","address":"COLLEGE STREET, 300","searchable":"2635 BINGHAM HALL,CHARLES COLLEGE STREET, 300  BINGHAM HALL, CHARLES W. BM 300 COLLEGE STREET COLLEGE ST, 300 BINGHAM HALL - BM","gsf":62202,"nsf":48607,"latitude":41.30772,"longitude":-72.928737,"distance":99.0},{"site":"CEN","zone":"ZONE 4","buildingID":343,"facid":"2505","name":"BRANFORD COLLEGE","abbr":"BR","address":"HIGH STREET, 74","searchable":"2505 BRANFORD COLLEGE HIGH STREET, 74  BRANFORD COLLEGE BR 74 HIGH STREET HIGH ST, 74 BRANFORD COLLEGE - BR","gsf":154221,"nsf":115837,"latitude":41.310308,"longitude":-72.928117,"distance":99.0},{"site":"CEN","zone":"ZONE 4","buildingID":366,"facid":"2705","name":"BRITISH ART, YALE CTR","abbr":"YCBA","address":"CHAPEL STREET, 1080","searchable":"2705 BRITISH ART, YALE CTR CHAPEL STREET, 1080  YALE CENTER FOR BRITISH ART YCBA 1080 CHAPEL STREET CHAPEL ST, 1080 BRITISH ART CENTER","gsf":112612,"nsf":99460,"latitude":41.307776,"longitude":-72.930972,"distance":99.0},{"site":"CEN","zone":"LEASED","buildingID":294,"facid":"2140","name":"BROADWAY, 77","abbr":"BRWY77","address":"BROADWAY, 77","searchable":"2140 BROADWAY, 77 BROADWAY, 77 YALE CO-OP BROADWAY, 77 BRWY77 77 BROADWAY BROADWAY, 77 77 BROAD","gsf":48281,"nsf":0,"latitude":41.311776,"longitude":-72.931241,"distance":99.0},{"site":"CEN","zone":"ZONE 3","buildingID":278,"facid":"2035","name":"CALHOUN COLLEGE,JOHN","abbr":"CC","address":"ELM STREET, 189","searchable":"2035 CALHOUN COLLEGE,JOHN ELM STREET, 189  CALHOUN COLLEGE, JOHN C. CC 189 ELM STREET ELM ST, 189 CALHOUN COLLEGE - CC","gsf":131329,"nsf":100019,"latitude":41.309936,"longitude":-72.927225,"distance":99.0},{"site":"CEN","zone":"ZONE 1","buildingID":111,"facid":"1006","name":"CHEMICAL SAFETY BLDG","abbr":"CSB","address":"EDWARDS STREET, 350","searchable":"1006 CHEMICAL SAFETY BLDG EDWARDS STREET, 350  CHEMICAL SAFETY BUILDING CSB 350 EDWARDS STREET EDWARDS ST, 350 CHEMICAL SAFETY BLDG","gsf":8755,"nsf":6954,"latitude":41.318929,"longitude":-72.921959,"distance":99.0},{"site":"CEN","zone":"ZONE 1","buildingID":4751,"facid":"1093","name":"CHEMISTRY RES BLDG","abbr":"CRB","address":"PROSPECT STREET, 275","searchable":"1093 CHEMISTRY RES BLDG PROSPECT STREET, 275  CHEMISTRY RESEARCH BUILDING, CLASS OF 1954 CRB 275 PROSPECT STREET PROSPECT ST, 275 ","gsf":117985,"nsf":98155,"latitude":41.319259,"longitude":-72.922661,"distance":99.0},{"site":"CEN","zone":"ZONE 3","buildingID":248,"facid":"1835","name":"CHURCH ST, 246","abbr":"CHUR246","address":"CHURCH STREET, 246","searchable":"1835 CHURCH ST, 246 CHURCH STREET, 246  CHURCH STREET, 246 CHUR246 246 CHURCH STREET CHURCH ST, 246 ","gsf":32625,"nsf":28560,"latitude":41.310002,"longitude":-72.923337,"distance":99.0},{"site":"CEN","zone":"ZONE 3","buildingID":247,"facid":"1830","name":"CHURCH ST, 250","abbr":"CHUR250","address":"CHURCH STREET, 250","searchable":"1830 CHURCH ST, 250 CHURCH STREET, 250 PRESIDENT WOOLSEY HOUSE CHURCH STREET, 250 CHUR250 250 CHURCH STREET CHURCH ST, 250 ","gsf":11578,"nsf":9551,"latitude":41.310132,"longitude":-72.923057,"distance":99.0},{"site":"CEN","zone":"ZONE 3","buildingID":246,"facid":"1825","name":"CHURCH ST, 258/GROVE,96","abbr":"CHUR258","address":"CHURCH STREET, 258","searchable":"1825 CHURCH ST, 258/GROVE,96 CHURCH STREET, 258 GROVE ST, 96 2ND ENTRNC/ABBY SALISBURY/ELFORD P. TROWBRIDGE HSE CHURCH STREET, 258 CHUR258 258 CHURCH STREET CHURCH ST, 258 ","gsf":11078,"nsf":9252,"latitude":41.31039,"longitude":-72.922927,"distance":99.0},{"site":"CEN","zone":"ZONE 3","buildingID":264,"facid":"1955","name":"COLLEGE ST, 451","abbr":"COLL451","address":"COLLEGE STREET, 451","searchable":"1955 COLLEGE ST, 451 COLLEGE STREET, 451 FRANKLIN HALL/THETA XI ALUMNI HALL COLLEGE STREET, 451 COLL451 451 COLLEGE STREET COLLEGE ST, 451 ","gsf":18378,"nsf":15125,"latitude":41.310136,"longitude":-72.926232,"distance":99.0},{"site":"CEN","zone":"ZONE 3","buildingID":244,"facid":"1810","name":"COLLEGE ST, 493","abbr":"COLL493","address":"COLLEGE STREET, 493","searchable":"1810 COLLEGE ST, 493 COLLEGE STREET, 493  COLLEGE STREET, 493 COLL493 493 COLLEGE STREET COLLEGE ST, 493 ","gsf":20220,"nsf":14603,"latitude":41.310847,"longitude":-72.925666,"distance":99.0},{"site":"CEN","zone":"ZONE 3","buildingID":357,"facid":"2640","name":"CONNECTICUT HALL","abbr":"C","address":"CHAPEL STREET, 1017","searchable":"2640 CONNECTICUT HALL CHAPEL STREET, 1017 SOUTH MIDDLE COLLEGE CONNECTICUT HALL C 1017 CHAPEL STREET CHAPEL ST, 1017 CONNECTICUT HALL","gsf":18543,"nsf":13795,"latitude":41.308085,"longitude":-72.928888,"distance":99.0},{"site":"CEN","zone":"ZONE 4","buildingID":324,"facid":"2420","name":"DAVENPORT COLLEGE","abbr":"DC","address":"YORK STREET, 248","searchable":"2420 DAVENPORT COLLEGE YORK STREET, 248  DAVENPORT COLLEGE, JOHN DC 248 YORK STREET YORK ST, 248 DAVENPORT COLLEGE - DC","gsf":157488,"nsf":123243,"latitude":41.310418,"longitude":-72.931252,"distance":99.0},{"site":"CEN","zone":"ZONE 2","buildingID":226,"facid":"1620","name":"DOW HALL","abbr":"DOW","address":"TEMPLE STREET, 370","searchable":"1620 DOW HALL TEMPLE STREET, 370 TEMPLE ST, 370; VERNON HALL DOW HALL, CHRISTINA AND ROBERT DOW 370 TEMPLE STREET TEMPLE ST, 370 ","gsf":21355,"nsf":16042,"latitude":41.311315,"longitude":-72.923886,"distance":99.0},{"site":"CEN","zone":"ZONE 1","buildingID":214,"facid":"1510","name":"DUNHAM LAB","abbr":"DL","address":"HILLHOUSE AVENUE, 10","searchable":"1510 DUNHAM LAB HILLHOUSE AVENUE, 10  DUNHAM LABORATORY, AUSTIN C. DL 10 HILLHOUSE AVENUE HILLHOUSE AVE, 10 DUNHAM LAB","gsf":78132,"nsf":66471,"latitude":41.312299,"longitude":-72.924548,"distance":99.0},{"site":"CEN","zone":"ZONE 3","buildingID":350,"facid":"2605","name":"DURFEE HALL,BRADFORD","abbr":"D","address":"ELM STREET, 198","searchable":"2605 DURFEE HALL,BRADFORD ELM STREET, 198  DURFEE HALL, BRADFORD M.C. D 198 ELM STREET ELM ST, 198 BRADFORD DURFEE HALL","gsf":43805,"nsf":33654,"latitude":41.309622,"longitude":-72.928056,"distance":99.0},{"site":"CEN","zone":"ZONE 3","buildingID":362,"facid":"2665","name":"DWIGHT HALL \u0026 CHAPEL","abbr":"DW","address":"HIGH STREET, 67","searchable":"2665 DWIGHT HALL \u0026 CHAPEL HIGH STREET, 67 YALE COLLEGE LIBRARY DWIGHT HALL AND CHAPEL DW 67 HIGH STREET HIGH ST, 67 DWIGHT HALL \u0026  CHAPEL - DW","gsf":18074,"nsf":13907,"latitude":41.308927,"longitude":-72.929303,"distance":99.0},{"site":"CEN","buildingID":4968,"facid":"1152","name":"EDWARD P EVANS HALL","abbr":"EVANS","address":"WHITNEY AVENUE, 165","searchable":"1152 EDWARD P EVANS HALL WHITNEY AVENUE, 165  EDWARD P. EVANS HALL EVANS 165 WHITNEY AVENUE WHITNEY AVE, 165 ","gsf":342545,"nsf":293371,"latitude":41.315074,"longitude":-72.920063,"distance":99.0},{"site":"CEN","zone":"ZONE 1","buildingID":118,"facid":"1023","name":"ELECTRON ACCEL. LAB","abbr":"EAL","address":"WHITNEY AVENUE, 270","searchable":"1023 ELECTRON ACCEL. LAB WHITNEY AVENUE, 270  ELECTRON ACCELERATOR LABORATORIES EAL 270 WHITNEY AVENUE WHITNEY AVE, 270 ELECTRON ACCELERATOR LAB - ELECACCLAB","gsf":18824,"nsf":15759,"latitude":41.319079,"longitude":-72.921166,"distance":99.0},{"site":"CEN","zone":"ZONE 3","buildingID":266,"facid":"1960","name":"ELIZABETHAN CLUB","abbr":"COLL459","address":"COLLEGE STREET, 459","searchable":"1960 ELIZABETHAN CLUB COLLEGE STREET, 459 LEVERETT GRISWOLD HOUSE ELIZABETHAN CLUB COLL459 459 COLLEGE STREET COLLEGE ST, 459 ELIZABETHAN CLUB","gsf":0,"nsf":0,"latitude":41.310329,"longitude":-72.926123,"distance":99.0},{"site":"CEN","zone":"ZONE 3","buildingID":259,"facid":"1935","name":"ELM ST, 143","abbr":"ELM143","address":"ELM STREET, 143","searchable":"1935 ELM ST, 143 ELM STREET, 143 RALPH INGERSOLL HOUSE ELM STREET, 143 ELM143 143 ELM STREET ELM ST, 143 ","gsf":11636,"nsf":9583,"latitude":41.309067,"longitude":-72.925455,"distance":99.0},{"site":"CEN","zone":"ZONE 3","buildingID":260,"facid":"1940","name":"ELM ST, 149","abbr":"ELM149","address":"ELM STREET, 149","searchable":"1940 ELM ST, 149 ELM STREET, 149 JOHN PIERPONT HOUSE ELM STREET, 149 ELM149 149 ELM STREET ELM ST, 149 ","gsf":15435,"nsf":10792,"latitude":41.309182,"longitude":-72.925639,"distance":99.0},{"site":"CEN","zone":"ZONE 4","buildingID":318,"facid":"2405","name":"ELM ST, 294-296","abbr":"ELM294","address":"ELM STREET, 294-296","searchable":"2405 ELM ST, 294-296 ELM STREET, 294-296 ELM ST, 294-296 ELM STREET,  294-296 ELM294 294-296 ELM STREET ELM ST, 294 ","gsf":8539,"nsf":7415,"latitude":41.31066,"longitude":-72.930282,"distance":99.0},{"site":"CEN","zone":"LEASED","buildingID":315,"facid":"2400","name":"ELM ST, 316-320","abbr":"ELM316","address":"ELM STREET, 316-320","searchable":"2400 ELM ST, 316-320 ELM STREET, 316-320  ELM STREET, 316-320 ELM316 316-320 ELM STREET ELM ST, 316 316 ELM","gsf":15170,"nsf":0,"latitude":41.31114,"longitude":-72.931728,"distance":99.0},{"site":"CEN","zone":"ZONE 1","buildingID":125,"facid":"1049","name":"ENVIRONMTL SCIENCE CTR","abbr":"ESC","address":"SACHEM STREET, 21","searchable":"1049 ENVIRONMTL SCIENCE CTR SACHEM STREET, 21  ENVIRONMENTAL SCIENCE CENTER, CLASS OF 54 ESC 21 SACHEM STREET SACHEM ST, 21 ENVIRONMENTAL SCIENCE CENTER","gsf":99341,"nsf":87240,"latitude":41.316078,"longitude":-72.921769,"distance":99.0},{"site":"CEN","zone":"ZONE 2","buildingID":164,"facid":"1210","name":"EVANS HALL, THOMAS M.","abbr":"EVN","address":"HILLHOUSE AVENUE, 56","searchable":"1210 EVANS HALL, THOMAS M. HILLHOUSE AVENUE, 56 ELIZABETH APTHORP HOUSE EVANS HALL, THOMAS MELLON EVN 56 HILLHOUSE AVENUE HILLHOUSE AVE, 56 EVANS HALL","gsf":12659,"nsf":10154,"latitude":41.315689,"longitude":-72.923332,"distance":99.0},{"site":"CEN","zone":"ZONE 4","buildingID":295,"facid":"2145","name":"EZRA STILES COLLEGE","abbr":"ES","address":"YORK STREET, 302","searchable":"2145 EZRA STILES COLLEGE YORK STREET, 302  STILES COLLEGE, EZRA ES 302 YORK STREET YORK ST, 302 EZRA STILES COLLEGE - ES","gsf":144250,"nsf":117057,"latitude":41.312485,"longitude":-72.930846,"distance":99.0},{"site":"CEN","zone":"ZONE 3","buildingID":352,"facid":"2615","name":"FARNAM HALL, HENRY","abbr":"F","address":"COLLEGE STREET, 380","searchable":"2615 FARNAM HALL, HENRY COLLEGE STREET, 380  FARNAM HALL, HENRY F 380 COLLEGE STREET COLLEGE ST, 380 HENRY FARNAM HALL","gsf":30353,"nsf":22986,"latitude":41.309048,"longitude":-72.927711,"distance":99.0},{"site":"CEN","zone":"ZONE 2","buildingID":162,"facid":"1200","name":"FOUNDERS HALL","abbr":"FND","address":"PROSPECT STREET, 135","searchable":"1200 FOUNDERS HALL PROSPECT STREET, 135 JOHN P. NORTON CARR HSE; YERKES LABS; PROSP. HILL DAY SCH; YALE OBSERV. FOUNDERS HALL FND 135 PROSPECT STREET PROSPECT ST, 135 ","gsf":13909,"nsf":11178,"latitude":41.31569,"longitude":-72.924257,"distance":99.0},{"site":"CEN","zone":"ZONE 4","buildingID":333,"facid":"2455","name":"GRAD-PRO STUDENT CTR","abbr":"GPSCY","address":"YORK STREET, 204","searchable":"2455 GRAD-PRO STUDENT CTR YORK STREET, 204 BETA THETA PI YORK STREET, 204 GPSCY 204 YORK STREET YORK ST, 204 GRAD-PRO STUDENT CTR - GYPSY","gsf":11274,"nsf":9200,"latitude":41.309298,"longitude":-72.931908,"distance":99.0},{"site":"CEN","zone":"ZONE 4","buildingID":377,"facid":"2770","name":"GREEN HALL","abbr":"GRN","address":"CHAPEL STREET, 1156","searchable":"2770 GREEN HALL CHAPEL STREET, 1156 CHAPEL ST, 1156 GREEN HALL, HOLCOMBE T., JR. GRN 1156 CHAPEL STREET CHAPEL ST, 1156 HOLCOMBE GREEN HALL","gsf":76390,"nsf":66119,"latitude":41.308741,"longitude":-72.932343,"distance":99.0},{"site":"CEN","zone":"OUTSOURCE","buildingID":4988,"facid":"0434","name":"GREENBERG CONF CENTER","abbr":"GBCC","address":"PROSPECT STREET, 391","searchable":"0434 GREENBERG CONF CENTER PROSPECT STREET, 391  GREENBERG CONFERENCE CENTER, MAURICE R. GBCC 391 PROSPECT STREET PROSPECT ST, 391 ","gsf":13642,"nsf":11691,"latitude":41.322215,"longitude":-72.921924,"distance":99.0},{"site":"CEN","zone":"ZONE 4","buildingID":284,"facid":"2105","name":"HALL OF GRAD STUDIES","abbr":"HGS","address":"YORK STREET, 320","searchable":"2105 HALL OF GRAD STUDIES YORK STREET, 320  HALL OF GRADUATE STUDIES HGS 320 YORK STREET YORK ST, 320 HALL OF GRADUATE STUDIES - HGS","gsf":195442,"nsf":156962,"latitude":41.31224,"longitude":-72.929413,"distance":99.0},{"site":"CEN","zone":"ZONE 2","buildingID":225,"facid":"1615","name":"HELEN HADLEY HALL","abbr":"HHH","address":"TEMPLE STREET, 420","searchable":"1615 HELEN HADLEY HALL TEMPLE STREET, 420  HADLEY HALL, HELEN MORRIS HHH 420 TEMPLE STREET TEMPLE ST, 420 HELEN HADLEY HALL MORRIS - HHH","gsf":64801,"nsf":57322,"latitude":41.312524,"longitude":-72.923042,"distance":99.0},{"site":"CEN","zone":"ZONE 3","buildingID":261,"facid":"1945","name":"HENDRIE HALL","abbr":"HENDRIE","address":"ELM STREET, 165","searchable":"1945 HENDRIE HALL ELM STREET, 165  HENDRIE HALL HENDRIE 165 ELM STREET ELM ST, 165 HENDRIE HALL","gsf":34719,"nsf":27885,"latitude":41.309383,"longitude":-72.926175,"distance":99.0},{"site":"CEN","zone":"ZONE 2","buildingID":229,"facid":"1635","name":"HILLHOUSE AVE,15","abbr":"HLH15","address":"HILLHOUSE AVENUE, 15","searchable":"1635 HILLHOUSE AVE,15 HILLHOUSE AVENUE, 15 YORK HALL, ALPHA DELTA PHI HILLHOUSE AVENUE, 15 HLH15 15 HILLHOUSE AVENUE HILLHOUSE AVE, 15 ","gsf":8502,"nsf":7009,"latitude":41.31241,"longitude":-72.923706,"distance":99.0},{"site":"CEN","zone":"ZONE 2","buildingID":230,"facid":"1640","name":"HILLHOUSE AVE,17","abbr":"HLH17","address":"HILLHOUSE AVENUE, 17","searchable":"1640 HILLHOUSE AVE,17 HILLHOUSE AVENUE, 17 UNIVERSITY HEALTH SERVICES CENTER HILLHOUSE AVENUE, 17 HLH17 17 HILLHOUSE AVENUE HILLHOUSE AVE, 17 UNIVERSITY HEALTH SERVICES CENTER","gsf":90568,"nsf":79638,"latitude":41.312781,"longitude":-72.923576,"distance":99.0},{"site":"CEN","zone":"ZONE 2","buildingID":147,"facid":"1120","name":"HILLHOUSE AVE,27","abbr":"HLH27","address":"HILLHOUSE AVENUE, 27","searchable":"1120 HILLHOUSE AVE,27 HILLHOUSE AVENUE, 27 REV PROF GEORGE PARK FISHER HOUSE HILLHOUSE AVENUE, 27 HLH27 27 HILLHOUSE AVENUE HILLHOUSE AVE, 27 ","gsf":13023,"nsf":9096,"latitude":41.313684,"longitude":-72.923163,"distance":99.0},{"site":"CEN","zone":"ZONE 2","buildingID":169,"facid":"1235","name":"HILLHOUSE AVE,28","abbr":"HLH28","address":"HILLHOUSE AVENUE, 28","searchable":"1235 HILLHOUSE AVE,28 HILLHOUSE AVENUE, 28 CHARLES HENRY FARNAM HOUSE HILLHOUSE AVENUE, 28 HLH28 28 HILLHOUSE AVENUE HILLHOUSE AVE, 28 ","gsf":15312,"nsf":12311,"latitude":41.313861,"longitude":-72.923997,"distance":99.0},{"site":"CEN","zone":"ZONE 2","buildingID":168,"facid":"1230","name":"HILLHOUSE AVE,30","abbr":"HLH30","address":"HILLHOUSE AVENUE, 30","searchable":"1230 HILLHOUSE AVE,30 HILLHOUSE AVENUE, 30  HILLHOUSE AVENUE, 30 HLH30 30 HILLHOUSE AVENUE HILLHOUSE AVE, 30 ","gsf":15988,"nsf":12899,"latitude":41.314053,"longitude":-72.923937,"distance":99.0},{"site":"CEN","zone":"ZONE 2","buildingID":149,"facid":"1130","name":"HILLHOUSE AVE,35","abbr":"HLH35","address":"HILLHOUSE AVENUE, 35","searchable":"1130 HILLHOUSE AVE,35 HILLHOUSE AVENUE, 35 MARY PRICHARD HOUSE HILLHOUSE AVENUE, 35 HLH35 35 HILLHOUSE AVENUE HILLHOUSE AVE, 35 ","gsf":10033,"nsf":8123,"latitude":41.314187,"longitude":-72.922896,"distance":99.0},{"site":"CEN","zone":"ZONE 2","buildingID":151,"facid":"1135","name":"HILLHOUSE AVE,37","abbr":"HLH37","address":"HILLHOUSE AVENUE, 37","searchable":"1135 HILLHOUSE AVE,37 HILLHOUSE AVENUE, 37 JOHN S GRAVES HSE; DANIEL COIT GILMAN HSE HILLHOUSE AVENUE, 37 HLH37 37 HILLHOUSE AVENUE HILLHOUSE AVE, 37 ","gsf":11239,"nsf":9382,"latitude":41.314479,"longitude":-72.922822,"distance":99.0},{"site":"CEN","zone":"ZONE 2","buildingID":167,"facid":"1225","name":"HILLHOUSE AVE,38","abbr":"HLH38","address":"HILLHOUSE AVENUE, 38","searchable":"1225 HILLHOUSE AVE,38 HILLHOUSE AVENUE, 38 HENRY FOWLER ENGLISH HSE HILLHOUSE AVENUE, 38 HLH38 38 HILLHOUSE AVENUE HILLHOUSE AVE, 38 ","gsf":17060,"nsf":13282,"latitude":41.314576,"longitude":-72.923746,"distance":99.0},{"site":"CEN","zone":"ZONE 2","buildingID":152,"facid":"1140","name":"HILLHOUSE AVE,43","abbr":"HLH43","address":"HILLHOUSE AVENUE, 43","searchable":"1140 HILLHOUSE AVE,43 HILLHOUSE AVENUE, 43  HILLHOUSE AVENUE, 43 HLH43 43 HILLHOUSE AVENUE HILLHOUSE AVE, 43 ","gsf":20739,"nsf":16019,"latitude":41.314727,"longitude":-72.922714,"distance":99.0},{"site":"CEN","zone":"ZONE 2","buildingID":166,"facid":"1220","name":"HILLHOUSE AVE,46","abbr":"HLH46","address":"HILLHOUSE AVENUE, 46","searchable":"1220 HILLHOUSE AVE,46 HILLHOUSE AVENUE, 46 AARON N. SKINNER HSE; TROWBRIDGE HSE HILLHOUSE AVENUE, 46 HLH46 46 HILLHOUSE AVENUE HILLHOUSE AVE, 46 ","gsf":12023,"nsf":9618,"latitude":41.315049,"longitude":-72.923594,"distance":99.0},{"site":"CEN","zone":"ZONE 2","buildingID":153,"facid":"1145","name":"HILLHOUSE AVE,51","abbr":"HLH51","address":"HILLHOUSE AVENUE, 51","searchable":"1145 HILLHOUSE AVE,51 HILLHOUSE AVENUE, 51 JOHN M. GRAVES HSE; JAMES M. B. DWIGHT HSE HILLHOUSE AVENUE, 51 HLH51 51 HILLHOUSE AVENUE HILLHOUSE AVE, 51 ","gsf":9950,"nsf":8180,"latitude":41.315107,"longitude":-72.922615,"distance":99.0},{"site":"CEN","zone":"ZONE 2","buildingID":139,"facid":"1100","name":"HORCHOW HALL","abbr":"HRCH","address":"HILLHOUSE AVENUE, 55","searchable":"1100 HORCHOW HALL HILLHOUSE AVENUE, 55 PELATIAH PERIT HOUSE HORCHOW HALL HRCH 55 HILLHOUSE AVENUE HILLHOUSE AVE, 55 HORCHOW HALL","gsf":20921,"nsf":16485,"latitude":41.31543,"longitude":-72.922403,"distance":99.0},{"site":"CEN","zone":"ZONE 2","buildingID":92,"facid":"0925","name":"INGALLS RINK","abbr":"IR","address":"SACHEM STREET, 73","searchable":"0925 INGALLS RINK SACHEM STREET, 73  INGALLS RINK, DAVID S. IR 73 SACHEM STREET SACHEM ST, 73 INGALLS RINK","gsf":75969,"nsf":67638,"latitude":41.316764,"longitude":-72.925103,"distance":99.0},{"site":"CEN","zone":"ZONE 1","buildingID":121,"facid":"1035","name":"J.W. GIBBS LABS","abbr":"JWG","address":"WHITNEY AVENUE, 260","searchable":"1035 J.W. GIBBS LABS WHITNEY AVENUE, 260  GIBBS LABORATORY, JOSIAH WILLARD JWG 260 WHITNEY AVENUE WHITNEY AVE, 260 J.W. GIBBS LABORATORY","gsf":106033,"nsf":98015,"latitude":41.317413,"longitude":-72.921748,"distance":99.0},{"site":"CEN","zone":"ZONE 4","buildingID":344,"facid":"2510","name":"JONATHAN EDWARDS COL","abbr":"JE","address":"HIGH STREET, 68","searchable":"2510 JONATHAN EDWARDS COL HIGH STREET, 68  EDWARDS COLLEGE, JONATHAN JE 68 HIGH STREET HIGH ST, 68 JONATHAN EDWARDS COLLEGE - JE","gsf":122968,"nsf":90343,"latitude":41.309104,"longitude":-72.930527,"distance":99.0},{"site":"CEN","zone":"ZONE 2","buildingID":215,"facid":"1515","name":"KIRTLAND HALL","abbr":"K","address":"HILLHOUSE AVENUE,  2","searchable":"1515 KIRTLAND HALL HILLHOUSE AVENUE,  2  KIRTLAND HALL, JARED P. K 2 HILLHOUSE AVENUE HILLHOUSE AVE,  2 KIRTLAND HALL","gsf":23049,"nsf":18360,"latitude":41.311865,"longitude":-72.924646,"distance":99.0},{"site":"CEN","zone":"ZONE 1","buildingID":135,"facid":"1080","name":"KLINE BIOLOGY TOWER","abbr":"KBT","address":"PROSPECT STREET, 219","searchable":"1080 KLINE BIOLOGY TOWER PROSPECT STREET, 219  KLINE BIOLOGY TOWER, C. MAHLON KBT 219 PROSPECT STREET PROSPECT ST, 219 KLINE BIOLOGY TOWER - KBT","gsf":207245,"nsf":179132,"latitude":41.317218,"longitude":-72.922686,"distance":99.0},{"site":"CEN","zone":"ZONE 1","buildingID":137,"facid":"1090","name":"KLINE CHEMISTRY LAB","abbr":"KCL","address":"PROSPECT STREET, 255","searchable":"1090 KLINE CHEMISTRY LAB PROSPECT STREET, 255  KLINE CHEMISTRY LABORATORY, C. MAHLON KCL 255 PROSPECT STREET PROSPECT ST, 255 KLINE CHEMISTRY LAB -  KCL","gsf":79863,"nsf":69195,"latitude":41.318843,"longitude":-72.922714,"distance":99.0},{"site":"CEN","zone":"ZONE 1","buildingID":122,"facid":"1040","name":"KLINE GEOLOGY LAB","abbr":"KGL","address":"WHITNEY AVENUE, 210","searchable":"1040 KLINE GEOLOGY LAB WHITNEY AVENUE, 210  KLINE GEOLOGY LABORATORY, C. MAHLON KGL 210 WHITNEY AVENUE WHITNEY AVE, 210 KLINE GEOLOGY LAB - KGL","gsf":118452,"nsf":105430,"latitude":41.316541,"longitude":-72.92106,"distance":99.0},{"site":"CEN","zone":"ZONE 1","buildingID":4792,"facid":"1067","name":"KROON HALL","abbr":"KRN","address":"PROSPECT STREET, 195","searchable":"1067 KROON HALL PROSPECT STREET, 195  KROON HALL KRN 195 PROSPECT STREET PROSPECT ST, 195 ","gsf":52635,"nsf":41896,"latitude":41.316783,"longitude":-72.92342,"distance":99.0},{"site":"CEN","zone":"ZONE 3","buildingID":349,"facid":"2600","name":"LANMAN-WRIGHT HALL","abbr":"LWR","address":"ELM STREET, 206","searchable":"2600 LANMAN-WRIGHT HALL ELM STREET, 206  LANMAN-WRIGHT HALL LWR 206 ELM STREET ELM ST, 206 LANMAN-WRIGHT HALL","gsf":65410,"nsf":51099,"latitude":41.309735,"longitude":-72.928692,"distance":99.0},{"site":"CEN","zone":"ZONE 3","buildingID":353,"facid":"2620","name":"LAWRANCE HALL,THOMAS","abbr":"L","address":"COLLEGE STREET, 358","searchable":"2620 LAWRANCE HALL,THOMAS COLLEGE STREET, 358  LAWRANCE HALL, THOMAS G. L 358 COLLEGE STREET COLLEGE ST, 358 THOMAS LAWRANCE HALL","gsf":37139,"nsf":27343,"latitude":41.308676,"longitude":-72.927996,"distance":99.0},{"site":"CEN","zone":"ZONE 2","buildingID":213,"facid":"1505","name":"LEET OLIVER MEM HALL","abbr":"LOM","address":"HILLHOUSE AVENUE, 12","searchable":"1505 LEET OLIVER MEM HALL HILLHOUSE AVENUE, 12  LEET OLIVER MEMORIAL HALL LOM 12 HILLHOUSE AVENUE HILLHOUSE AVE, 12 LEET OLIVER MEMORIAL HALL","gsf":21153,"nsf":16275,"latitude":41.312687,"longitude":-72.924334,"distance":99.0},{"site":"CEN","zone":"ZONE 3","buildingID":263,"facid":"1950","name":"LEIGH HALL","abbr":"LGH","address":"COLLEGE STREET, 435","searchable":"1950 LEIGH HALL COLLEGE STREET, 435 COLLEGE ST, 435/UG ADMIS/UNIV HEALTH CTR LEIGH HALL, ABBY AND MITCH LGH 435 COLLEGE STREET COLLEGE ST, 435 ABBY AND MITCH LEIGH HALL","gsf":28471,"nsf":21326,"latitude":41.309852,"longitude":-72.926412,"distance":99.0},{"site":"CEN","zone":"ZONE 3","buildingID":361,"facid":"2660","name":"LINSLY-CHITTENDEN","abbr":"LC","address":"HIGH STREET, 63","searchable":"2660 LINSLY-CHITTENDEN HIGH STREET, 63 LINSLY HALL, CHITTENDEN HALL LINSLY CHITTENDEN HALL LC 63 HIGH STREET HIGH ST, 63 LINSLY CHITTENDEN HALL - LC","gsf":59028,"nsf":46119,"latitude":41.308569,"longitude":-72.929557,"distance":99.0},{"site":"CEN","zone":"ZONE 2","buildingID":174,"facid":"1255","name":"LUCE HALL, HENRY R.","abbr":"LUCE","address":"HILLHOUSE AVENUE, 34","searchable":"1255 LUCE HALL, HENRY R. HILLHOUSE AVENUE, 34  LUCE HALL, HENRY R. LUCE 34 HILLHOUSE AVENUE HILLHOUSE AVE, 34 HENRY LUCE HALL","gsf":32040,"nsf":27387,"latitude":41.314402,"longitude":-72.924341,"distance":99.0},{"site":"CEN","zone":"ZONE 1","buildingID":4750,"facid":"1540","name":"MALONE ENGIN CENTER","abbr":"MEC","address":"PROSPECT STREET,  55","searchable":"1540 MALONE ENGIN CENTER PROSPECT STREET,  55  MALONE ENGINEERING CENTER, DANIEL L. MEC 55 PROSPECT STREET PROSPECT ST,  55 ","gsf":64786,"nsf":55627,"latitude":41.313348,"longitude":-72.924858,"distance":99.0},{"site":"CEN","zone":"ZONE 1","buildingID":228,"facid":"1630","name":"MASON LAB","abbr":"ML","address":"HILLHOUSE AVENUE,  9","searchable":"1630 MASON LAB HILLHOUSE AVENUE,  9  MASON LABORATORY ML 9 HILLHOUSE AVENUE HILLHOUSE AVE,  9 MASON LAB","gsf":68573,"nsf":57363,"latitude":41.312108,"longitude":-72.923669,"distance":99.0},{"site":"CEN","zone":"ZONE 3","buildingID":358,"facid":"2645","name":"MCCLELLAN HALL,EDWIN","abbr":"EM","address":"CHAPEL STREET, 1037","searchable":"2645 MCCLELLAN HALL,EDWIN CHAPEL STREET, 1037  MCCLELLAN HALL, EDWIN EM 1037 CHAPEL STREET CHAPEL ST, 1037 MCCLELLAN HALL","gsf":21747,"nsf":17849,"latitude":41.30827,"longitude":-72.929339,"distance":99.0},{"site":"CEN","zone":"ZONE 4","buildingID":283,"facid":"2100","name":"MORSE COLLEGE","abbr":"MC","address":"YORK STREET, 304","searchable":"2100 MORSE COLLEGE YORK STREET, 304  MORSE COLLEGE, SAMUEL F. B. MC 304 YORK STREET YORK ST, 304 MORSE COLLEGE - 304 YORK - MC","gsf":144045,"nsf":116151,"latitude":41.312639,"longitude":-72.930124,"distance":99.0},{"site":"CEN","zone":"ZONE 1","buildingID":128,"facid":"1055","name":"OSBORN MEMORIAL LAB","abbr":"OML","address":"PROSPECT STREET, 165","searchable":"1055 OSBORN MEMORIAL LAB PROSPECT STREET, 165  OSBORN MEMORIAL LABORATORIES OML 165 PROSPECT STREET PROSPECT ST, 165 OSBORN MEMORIAL LAB - OML","gsf":108910,"nsf":81854,"latitude":41.316402,"longitude":-72.923796,"distance":99.0},{"site":"CEN","zone":"ZONE 4","buildingID":339,"facid":"2480","name":"PARK ST, 211","abbr":"PARK211","address":"PARK STREET, 211","searchable":"2480 PARK ST, 211 PARK STREET, 211 CHI PSI PARK STREET, 211 PARK211 211 PARK STREET PARK ST, 211 ","gsf":14540,"nsf":11658,"latitude":41.309407,"longitude":-72.932877,"distance":99.0},{"site":"CEN","zone":"ZONE 4","buildingID":340,"facid":"2485","name":"PARK ST, 215","abbr":"PARK215","address":"PARK STREET, 215","searchable":"2485 PARK ST, 215 PARK STREET, 215 ALPHA DELTA PHI PARK STREET, 215 PARK215 215 PARK STREET PARK ST, 215 ","gsf":10034,"nsf":7994,"latitude":41.309241,"longitude":-72.932397,"distance":99.0},{"site":"CEN","zone":"ZONE 4","buildingID":341,"facid":"2490","name":"PARK ST, 217","abbr":"PARK217","address":"PARK STREET, 217","searchable":"2490 PARK ST, 217 PARK STREET, 217 PHI GAMMA DELTA PARK STREET, 217 PARK217 217 PARK STREET PARK ST, 217 CABARET","gsf":11409,"nsf":8952,"latitude":41.309578,"longitude":-72.932691,"distance":99.0},{"site":"CEN","zone":"ZONE 4","buildingID":206,"facid":"1440","name":"PAYNE WHITNEY GYM","abbr":"PWG","address":"TOWER PARKWAY, 70","searchable":"1440 PAYNE WHITNEY GYM TOWER PARKWAY, 70  WHITNEY GYMNASIUM, PAYNE PWG 70 TOWER PARKWAY TOWER PKWY, 70 PAYNE WHITNEY GYMNASIUM - PWG","gsf":535971,"nsf":429203,"latitude":41.313769,"longitude":-72.930945,"distance":99.0},{"site":"CEN","zone":"ZONE 1","buildingID":123,"facid":"1045","name":"PEABODY MUSEUM","abbr":"PM","address":"WHITNEY AVENUE, 170","searchable":"1045 PEABODY MUSEUM WHITNEY AVENUE, 170  PEABODY MUSEUM OF NATURAL HISTORY, GEORGE PM 170 WHITNEY AVENUE WHITNEY AVE, 170 PEABODY MUSEUM OF NATURAL HISTORY","gsf":88468,"nsf":70951,"latitude":41.315971,"longitude":-72.921142,"distance":99.0},{"site":"CEN","zone":"ZONE 3","buildingID":354,"facid":"2625","name":"PHELPS HALL","abbr":"PHELPS","address":"COLLEGE STREET, 344","searchable":"2625 PHELPS HALL COLLEGE STREET, 344  PHELPS HALL PHELPS 344 COLLEGE STREET COLLEGE ST, 344 PHELPS HALL - PH","gsf":27818,"nsf":16316,"latitude":41.308412,"longitude":-72.928206,"distance":99.0},{"site":"CEN","zone":"ZONE 4","buildingID":325,"facid":"2425","name":"PIERSON COLLEGE","abbr":"PC","address":"PARK STREET, 261","searchable":"2425 PIERSON COLLEGE PARK STREET, 261  PIERSON COLLEGE, ABRAHAM PC 261 PARK STREET PARK ST, 261 PIERSON COLLEGE - PC","gsf":174906,"nsf":135394,"latitude":41.310049,"longitude":-72.932166,"distance":99.0},{"site":"CEN","zone":"ZONE 1","buildingID":114,"facid":"1015","name":"PIERSON-SAGE GARAGE","abbr":"PSPG","address":"WHITNEY AVENUE, 280","searchable":"1015 PIERSON-SAGE GARAGE WHITNEY AVENUE, 280  PIERSON - SAGE PARKING GARAGE PSPG 280 WHITNEY AVENUE WHITNEY AVE, 280 PIERSON-SAGE PARKING GARAGE - PIERSAGEPK","gsf":206329,"nsf":196757,"latitude":41.31943,"longitude":-72.920275,"distance":99.0},{"site":"CEN","zone":"ZONE 2","buildingID":173,"facid":"1250","name":"PROSPECT ST, 77","abbr":"PROS077","address":"PROSPECT STREET,  77","searchable":"1250 PROSPECT ST, 77 PROSPECT STREET,  77  PROSPECT STREET,  77 PROS077 77 PROSPECT STREET PROSPECT ST,  77 ","gsf":21887,"nsf":17531,"latitude":41.313967,"longitude":-72.924613,"distance":99.0},{"site":"CEN","zone":"OUTSOURCE","buildingID":90,"facid":"0921","name":"PROSPECT ST,202","abbr":"PROS202","address":"PROSPECT STREET, 202","searchable":"0921 PROSPECT ST,202 PROSPECT STREET, 202 DR. THEODORE T. MUNGER HSE PROSPECT STREET, 202 PROS202 202 PROSPECT STREET PROSPECT ST, 202 ","gsf":7394,"nsf":6432,"latitude":41.317246,"longitude":-72.924357,"distance":99.0},{"site":"CEN","zone":"ZONE 2","buildingID":89,"facid":"0920","name":"PROSPECT ST,204","abbr":"PROS204","address":"PROSPECT STREET, 204","searchable":"0920 PROSPECT ST,204 PROSPECT STREET, 204  PROSPECT STREET, 204 PROS204 204 PROSPECT STREET PROSPECT ST, 204 ","gsf":7545,"nsf":6129,"latitude":41.31739,"longitude":-72.924313,"distance":99.0},{"site":"CEN","zone":"ZONE 2","buildingID":88,"facid":"0915","name":"PROSPECT ST,210","abbr":"PROS210","address":"PROSPECT STREET, 210","searchable":"0915 PROSPECT ST,210 PROSPECT STREET, 210  PROSPECT STREET, 210 PROS210 210 PROSPECT STREET PROSPECT ST, 210 ","gsf":8344,"nsf":6648,"latitude":41.317557,"longitude":-72.924276,"distance":99.0},{"site":"CEN","zone":"ZONE 2","buildingID":87,"facid":"0910","name":"PROSPECT ST,230","abbr":"PROS230","address":"PROSPECT STREET, 230","searchable":"0910 PROSPECT ST,230 PROSPECT STREET, 230 LUZAN B. MORRIS HSE PROSPECT STREET, 230 PROS230 230 PROSPECT STREET PROSPECT ST, 230 ","gsf":8549,"nsf":7102,"latitude":41.318107,"longitude":-72.924139,"distance":99.0},{"site":"CEN","zone":"ZONE 2","buildingID":86,"facid":"0905","name":"PROSPECT ST,238","abbr":"PROS238","address":"PROSPECT STREET, 238","searchable":"0905 PROSPECT ST,238 PROSPECT STREET, 238 PROF. HERBERT A NEWTON HSE PROSPECT STREET, 238 PROS238 238 PROSPECT STREET PROSPECT ST, 238 ","gsf":5671,"nsf":4427,"latitude":41.318312,"longitude":-72.924112,"distance":99.0},{"site":"CEN","zone":"LEASED","buildingID":85,"facid":"0900","name":"PROSPECT ST,242","abbr":"PROS242","address":"PROSPECT STREET, 242","searchable":"0900 PROSPECT ST,242 PROSPECT STREET, 242  PROSPECT STREET, 242 PROS242 242 PROSPECT STREET PROSPECT ST, 242 ","gsf":9280,"nsf":0,"latitude":41.318505,"longitude":-72.924066,"distance":99.0},{"site":"CEN","zone":"ZONE 2","buildingID":72,"facid":"0820","name":"PROSPECT ST,254","abbr":"PROS254","address":"PROSPECT STREET, 254","searchable":"0820 PROSPECT ST,254 PROSPECT STREET, 254 GEORGE W. CURTIS HSE PROSPECT STREET, 254 PROS254 254 PROSPECT STREET PROSPECT ST, 254 ","gsf":10013,"nsf":8484,"latitude":41.318746,"longitude":-72.924044,"distance":99.0},{"site":"CEN","zone":"ZONE 2","buildingID":69,"facid":"0815","name":"PROSPECT ST,276","abbr":"PROS276","address":"PROSPECT STREET, 276","searchable":"0815 PROSPECT ST,276 PROSPECT STREET, 276 OLD YALE INFIRMERY PROSPECT STREET, 276 PROS276 276 PROSPECT STREET PROSPECT ST, 276 ","gsf":18943,"nsf":15360,"latitude":41.319153,"longitude":-72.923977,"distance":99.0},{"site":"CEN","zone":"LEASED","buildingID":68,"facid":"0810","name":"PROSPECT ST,282","abbr":"PROS282","address":"PROSPECT STREET, 282","searchable":"0810 PROSPECT ST,282 PROSPECT STREET, 282  PROSPECT STREET, 282 PROS282 282 PROSPECT STREET PROSPECT ST, 282 ","gsf":9199,"nsf":0,"latitude":41.319512,"longitude":-72.923832,"distance":99.0},{"site":"CEN","zone":"OUTSOURCE","buildingID":65,"facid":"0806","name":"PROSPECT ST,300","abbr":"PROS300","address":"PROSPECT STREET, 300","searchable":"0806 PROSPECT ST,300 PROSPECT STREET, 300  PROSPECT STREET, 300 PROS300 300 PROSPECT STREET PROSPECT ST, 300 ","gsf":6452,"nsf":5213,"latitude":41.319789,"longitude":-72.92378,"distance":99.0},{"site":"CEN","zone":"ZONE 2","buildingID":64,"facid":"0805","name":"PROSPECT ST,310","abbr":"PROS310","address":"PROSPECT STREET, 310","searchable":"0805 PROSPECT ST,310 PROSPECT STREET, 310 JOHN SCHWAB HSE PROSPECT STREET, 310 PROS310 310 PROSPECT STREET PROSPECT ST, 310 ","gsf":9828,"nsf":8212,"latitude":41.320054,"longitude":-72.923796,"distance":99.0},{"site":"CEN","zone":"ZONE 2","buildingID":61,"facid":"0800","name":"PROSPECT ST,314","abbr":"PROS314","address":"PROSPECT STREET, 314","searchable":"0800 PROSPECT ST,314 PROSPECT STREET, 314 ALEXANDER CATLIN TWINING HSE PROSPECT STREET, 314 PROS314 314 PROSPECT STREET PROSPECT ST, 314 ","gsf":7901,"nsf":6515,"latitude":41.32032,"longitude":-72.923779,"distance":99.0},{"site":"CEN","zone":"ZONE 2","buildingID":4860,"facid":"0924","name":"PROSPECT-SACHEM GAR","abbr":"PSG","address":"PROSPECT STREET, 200","searchable":"0924 PROSPECT-SACHEM GAR PROSPECT STREET, 200 SCIENCE HILL PARKING GARAGE - SHPG PROSPECT-SACHEM GARAGE PSG 200 PROSPECT STREET PROSPECT ST, 200 ","gsf":111875,"nsf":106763,"latitude":41.31791,"longitude":-72.92474,"distance":99.0},{"site":"CEN","zone":"ZONE 4","buildingID":207,"facid":"1445","name":"RAY TOMPKINS HOUSE","abbr":"RTH","address":"TOWER PARKWAY, 20","searchable":"1445 RAY TOMPKINS HOUSE TOWER PARKWAY, 20  TOMPKINS HOUSE, RAY RTH 20 TOWER PARKWAY TOWER PKWY, 20 RAY TOMPKINS HOUSE - RTH","gsf":51499,"nsf":42235,"latitude":41.313218,"longitude":-72.931827,"distance":99.0},{"site":"CEN","buildingID":4998,"facid":"1350","name":"RESID COLLEGE 13 SOUTH","abbr":"RESCOL13","address":"PROSPECT STREET,  90","searchable":"1350 RESID COLLEGE 13 SOUTH PROSPECT STREET,  90  RESIDENTIAL COLLEGE 13 SOUTH COLLEGE RESCOL13 90 PROSPECT STREET PROSPECT ST, 90 ","gsf":0,"nsf":0,"latitude":41.314576,"longitude":-72.925392,"distance":99.0},{"site":"CEN","zone":"ZONE 4","buildingID":326,"facid":"2430","name":"ROSE ALUMNI HOUSE","abbr":"RAH","address":"YORK STREET, 232","searchable":"2430 ROSE ALUMNI HOUSE YORK STREET, 232 DELTA KAPPA EPSILON ROSE ALUMNI HOUSE RAH 232 YORK STREET YORK ST, 232 ROSE ALUMNI HOUSE - AYA","gsf":11798,"nsf":9128,"latitude":41.309894,"longitude":-72.931056,"distance":99.0},{"site":"CEN","zone":"ZONE 4","buildingID":4775,"facid":"1385","name":"ROSE CENTER","abbr":"ROSE","address":"ASHMUN STREET, 101","searchable":"1385 ROSE CENTER ASHMUN STREET, 101  ROSE CENTER ROSE 101 ASHMUN STREET ASHMUN ST, 101 ","gsf":38166,"nsf":33396,"latitude":41.315946,"longitude":-72.928808,"distance":99.0},{"site":"CEN","zone":"ZONE 3","buildingID":237,"facid":"1715","name":"ROSENFELD HALL","abbr":"RSN","address":"GROVE STREET, 109-111","searchable":"1715 ROSENFELD HALL GROVE STREET, 109-111 ST. ELMO HALL ROSENFELD HALL RSN 109-111 GROVE STREET GROVE ST, 109 ROSENFELD HALL- 109 GROVE","gsf":40056,"nsf":30906,"latitude":41.311047,"longitude":-72.923403,"distance":99.0},{"site":"CEN","zone":"ZONE 2","buildingID":4922,"facid":"1261","name":"ROSENKRANZ HALL","abbr":"RKZ","address":"PROSPECT STREET, 115","searchable":"1261 ROSENKRANZ HALL PROSPECT STREET, 115  ROSENKRANZ HALL, ROBERT RKZ 115 PROPSECT STREET PROSPECT ST, 115 ","gsf":70710,"nsf":60780,"latitude":41.314669,"longitude":-72.924519,"distance":99.0},{"site":"CEN","zone":"ZONE 4","buildingID":336,"facid":"2470","name":"RUDOLPH HALL","abbr":"RDH","address":"YORK STREET, 180","searchable":"2470 RUDOLPH HALL YORK STREET, 180  RUDOLPH HALL, PAUL RDH 180 YORK STREET YORK ST, 180 ART \u0026 ARCHITECTURE BUILDING - AA","gsf":110307,"nsf":92748,"latitude":41.308779,"longitude":-72.931892,"distance":99.0},{"site":"CEN","zone":"ZONE 2","buildingID":144,"facid":"1110","name":"SACHEM ST, 10 (158 WHIT)","abbr":"SACH010","address":"SACHEM STREET, 10","searchable":"1110 SACHEM ST, 10 (158 WHIT) SACHEM STREET, 10 WHITNEY AVE, 158 - WHIT158; JOHN NORTH HSE SACHEM STREET, 10 SACH010 10 SACHEM STREET SACHEM ST, 10 158 WHITNEY","gsf":30596,"nsf":26184,"latitude":41.315221,"longitude":-72.921483,"distance":99.0},{"site":"CEN","zone":"ZONE 1","buildingID":132,"facid":"1070","name":"SAGE-BOWERS HALL","abbr":"SB","address":"PROSPECT STREET, 205","searchable":"1070 SAGE-BOWERS HALL PROSPECT STREET, 205  SAGE- BOWERS HALLS SB 205 PROSPECT STREET PROSPECT ST, 205 SAGE-BOWERS HALLS - SAGEHALL","gsf":27698,"nsf":22606,"latitude":41.317156,"longitude":-72.923697,"distance":99.0},{"site":"CEN","zone":"ZONE 4","buildingID":342,"facid":"2500","name":"SAYBROOK COLLEGE","abbr":"SY","address":"ELM STREET, 242","searchable":"2500 SAYBROOK COLLEGE ELM STREET, 242  SAYBROOK COLLEGE SY 242 ELM STREET ELM ST, 242 SAYBROOK COLLEGE - SY","gsf":164824,"nsf":127098,"latitude":41.310092,"longitude":-72.929603,"distance":99.0},{"site":"CEN","zone":"ZONE 3","buildingID":272,"facid":"2010","name":"SCHWARZMAN CENTER","abbr":"SC","address":"GROVE STREET, 168","searchable":"2010 SCHWARZMAN CENTER GROVE STREET, 168 UNIVERSITY COMMONS SCHWARZMAN CENTER SC 168 GROVE STREET GROVE ST, 168 UNIVERSITY COMMONS","gsf":95259,"nsf":70546,"latitude":41.311803,"longitude":-72.926478,"distance":99.0},{"site":"CEN","zone":"ZONE 2","buildingID":216,"facid":"1520","name":"SHEFFD-STERL-STRATHC","abbr":"SSS","address":"PROSPECT STREET,   1","searchable":"1520 SHEFFD-STERL-STRATHC PROSPECT STREET,   1  SHEFFIELD STERLING STRATHCONA HALL SSS 1 PROSPECT STREET PROSPECT ST,   1 SHEFFIELD STERLING STRATHCONA HALL - SSS","gsf":93416,"nsf":73673,"latitude":41.311851,"longitude":-72.925272,"distance":99.0},{"site":"CEN","zone":"ZONE 3","buildingID":243,"facid":"1800","name":"SILLIMAN COLLEGE","abbr":"SM","address":"COLLEGE STREET, 505","searchable":"1800 SILLIMAN COLLEGE COLLEGE STREET, 505 INCL. BYERS HALL \u0026 VANDERBILT SCIENTIFIC HALL SILLIMAN COLLEGE, BENJAMIN SM 505 COLLEGE STREET COLLEGE ST, 505 BENJAMIN SILLIMAN COLLEGE - SM","gsf":239975,"nsf":186168,"latitude":41.310813,"longitude":-72.924871,"distance":99.0},{"site":"CEN","zone":"ZONE 3","buildingID":255,"facid":"1913","name":"SLIFKA CENTER, JOSEPH","abbr":"SLIFKA","address":"WALL STREET,  80","searchable":"1913 SLIFKA CENTER, JOSEPH WALL STREET,  80  SLIFKA CENTER, JOSEPH, FOR JEWISH LIFE SLIFKA 80 WALL STREET WALL ST, 80 JOSEPH SLIFKA CENTER","gsf":0,"nsf":0,"latitude":41.310179,"longitude":-72.925269,"distance":99.0},{"site":"CEN","zone":"ZONE 1","buildingID":134,"facid":"1075","name":"SLOANE PHYSICS LAB","abbr":"SPL","address":"PROSPECT STREET, 217","searchable":"1075 SLOANE PHYSICS LAB PROSPECT STREET, 217  SLOANE PHYSICS LABORATORY, HENRY T. \u0026 WILLIAM D. SPL 217 PROSPECT STREET PROSPECT ST, 217 SLOANE PHYSICS LAB","gsf":85433,"nsf":65292,"latitude":41.317345,"longitude":-72.923108,"distance":99.0},{"site":"CEN","zone":"ZONE 3","buildingID":276,"facid":"2025","name":"SPRAGUE HALL,ARNOLD","abbr":"SMH","address":"COLLEGE STREET, 470","searchable":"2025 SPRAGUE HALL,ARNOLD COLLEGE STREET, 470  SPRAGUE MEMORIAL HALL, ARNOLD A. SMH 470 COLLEGE STREET COLLEGE ST, 470 SPRAGUE MEMORIAL HALL - SMH","gsf":34417,"nsf":27671,"latitude":41.310687,"longitude":-72.926576,"distance":99.0},{"site":"CEN","zone":"ZONE 2","buildingID":165,"facid":"1215","name":"STEINBACH HALL","abbr":"STN","address":"HILLHOUSE AVENUE, 52","searchable":"1215 STEINBACH HALL HILLHOUSE AVENUE, 52 JOHN P. NORTON HOUSE STEINBACH HALL STN 52 HILLHOUSE AVENUE HILLHOUSE AVE, 52 STEINBACH HALL","gsf":12462,"nsf":9992,"latitude":41.315431,"longitude":-72.923441,"distance":99.0},{"site":"CEN","zone":"ZONE 1","buildingID":136,"facid":"1085","name":"STERLING CHEM LAB","abbr":"SCL","address":"PROSPECT STREET, 225","searchable":"1085 STERLING CHEM LAB PROSPECT STREET, 225  STERLING CHEMISTRY LABORATORY, JOHN W. SCL 225 PROSPECT STREET PROSPECT ST, 225 STERLING CHEMISTRY LAB - SCL","gsf":168469,"nsf":147058,"latitude":41.318237,"longitude":-72.922934,"distance":99.0},{"site":"CEN","zone":"ZONE 2","buildingID":38,"facid":"0440","name":"STERLING DIV. QUAD.","abbr":"SDQ","address":"PROSPECT STREET, 409","searchable":"0440 STERLING DIV. QUAD. PROSPECT STREET, 409  STERLING DIVINITY QUADRANGLE, JOHN W. SDQ 409 PROSPECT STREET PROSPECT ST, 409 STERLING DIVINITY QUAD - DIVQUAD","gsf":160365,"nsf":133659,"latitude":41.3234,"longitude":-72.92169,"distance":99.0},{"site":"CEN","zone":"ZONE 4","buildingID":269,"facid":"2000","name":"STERLING LAW BLDGS.","abbr":"SLB","address":"WALL STREET, 127","searchable":"2000 STERLING LAW BLDGS. WALL STREET, 127  STERLING LAW BUILDINGS, JOHN W. SLB 127 WALL STREET WALL ST,127 STERLING LAW BLDG - SLB","gsf":255687,"nsf":205622,"latitude":41.312037,"longitude":-72.928189,"distance":99.0},{"site":"CEN","zone":"ZONE 4","buildingID":282,"facid":"2055","name":"STERLING MEM LIBRARY","abbr":"SML","address":"HIGH STREET,120","searchable":"2055 STERLING MEM LIBRARY HIGH STREET,120  STERLING MEMORIAL LIBRARY SML 120 HIGH STREET HIGH ST,120 STERLING MEMORIAL LIBRARY - SML","gsf":443000,"nsf":375669,"latitude":41.311139,"longitude":-72.928898,"distance":99.0},{"site":"CEN","zone":"ZONE 3","buildingID":252,"facid":"1900","name":"STOECKEL HALL","abbr":"STOECK","address":"COLLEGE STREET, 469","searchable":"1900 STOECKEL HALL COLLEGE STREET, 469  STOECKEL HALL, GUSTAVE J. STOECK 469 COLLEGE STREET COLLEGE ST, 469 STOECKEL HALL","gsf":22775,"nsf":17957,"latitude":41.310498,"longitude":-72.926024,"distance":99.0},{"site":"CEN","zone":"ZONE 3","buildingID":360,"facid":"2655","name":"STREET HALL","abbr":"ST","address":"CHAPEL STREET, 1071","searchable":"2655 STREET HALL CHAPEL STREET, 1071 YALE SCHOOL OF FINE ARTS STREET HALL ST 1071 CHAPEL STREET CHAPEL ST, 1071 STREET HALL","gsf":32028,"nsf":22607,"latitude":41.308026,"longitude":-72.92993,"distance":99.0},{"site":"CEN","zone":"ZONE 3","buildingID":258,"facid":"1930","name":"TEMPLE ST, 302","abbr":"TEMP302","address":"TEMPLE STREET, 302","searchable":"1930 TEMPLE ST, 302 TEMPLE STREET, 302  TEMPLE STREET, 302 TEMP302 302 TEMPLE STREET TEMPLE ST, 302 ","gsf":33445,"nsf":28162,"latitude":41.309388,"longitude":-72.925315,"distance":99.0},{"site":"CEN","zone":"ZONE 3","buildingID":257,"facid":"1925","name":"TEMPLE ST, 320","abbr":"TEMP320","address":"TEMPLE STREET, 320","searchable":"1925 TEMPLE ST, 320 TEMPLE STREET, 320  TEMPLE STREET, 320 TEMP320 320 TEMPLE STREET TEMPLE ST, 320 ","gsf":9615,"nsf":7929,"latitude":41.309848,"longitude":-72.924908,"distance":99.0},{"site":"CEN","zone":"ZONE 2","buildingID":223,"facid":"1610","name":"TEMPLE ST, 432","abbr":"TEMP432","address":"TEMPLE STREET, 432","searchable":"1610 TEMPLE ST, 432 TEMPLE STREET, 432  TEMPLE STREET, 432 TEMP432 432 TEMPLE STREET TEMPLE ST, 432 ","gsf":5786,"nsf":5006,"latitude":41.312822,"longitude":-72.922683,"distance":99.0},{"site":"CEN","zone":"ZONE 2","buildingID":224,"facid":"1612","name":"TEMPLE ST, 434","abbr":"TEMP434","address":"TEMPLE STREET, 434","searchable":"1612 TEMPLE ST, 434 TEMPLE STREET, 434  TEMPLE STREET, 434 TEMP434 434 TEMPLE STREET TEMPLE ST, 434 ","gsf":6577,"nsf":5255,"latitude":41.312902,"longitude":-72.922632,"distance":99.0},{"site":"CEN","zone":"ZONE 2","buildingID":221,"facid":"1605","name":"TEMPLE ST, 442","abbr":"TEMP442","address":"TEMPLE STREET, 442","searchable":"1605 TEMPLE ST, 442 TEMPLE STREET, 442 A. A. THOMPSON HSE TEMPLE STREET, 442 TEMP442 442 TEMPLE STREET TEMPLE ST, 442 ","gsf":5353,"nsf":4446,"latitude":41.313067,"longitude":-72.922578,"distance":99.0},{"site":"CEN","zone":"ZONE 3","buildingID":245,"facid":"1820","name":"TIMOTHY DWIGHT COLL.","abbr":"TD","address":"TEMPLE STREET, 345","searchable":"1820 TIMOTHY DWIGHT COLL. TEMPLE STREET, 345  DWIGHT COLLEGE, TIMOTHY TD 345 TEMPLE STREET TEMPLE ST, 345 TIMOTHY DWIGHT COLLEGE - TD","gsf":154555,"nsf":109554,"latitude":41.31028,"longitude":-72.923764,"distance":99.0},{"site":"CEN","zone":"ZONE 4","buildingID":281,"facid":"2050","name":"TRUMBULL COLLEGE","abbr":"TC","address":"ELM STREET, 241","searchable":"2050 TRUMBULL COLLEGE ELM STREET, 241  TRUMBULL COLLEGE, JONATHAN TC 241 ELM STREET ELM ST, 241 TRUMBULL COLLEGE - TC","gsf":127130,"nsf":97054,"latitude":41.310703,"longitude":-72.929112,"distance":99.0},{"site":"CEN","zone":"ZONE 2","buildingID":171,"facid":"1240","name":"TRUMBULL ST, 87","abbr":"TRUM87","address":"TRUMBULL STREET, 87","searchable":"1240 TRUMBULL ST, 87 TRUMBULL STREET, 87 BENJAMIN SILLIMAN HSE TRUMBULL STREET, 87 TRUM87 87 TRUMBULL STREET TRUMBULL ST, 87 ","gsf":7858,"nsf":6568,"latitude":41.313858,"longitude":-72.924351,"distance":99.0},{"site":"CEN","zone":"ZONE 4","buildingID":327,"facid":"2435","name":"UNIVERSITY THEATRE","abbr":"UT","address":"YORK STREET, 222","searchable":"2435 UNIVERSITY THEATRE YORK STREET, 222  UNIVERSITY THEATRE UT 222 YORK STREET YORK ST, 222 UNIVERSITY THEATRE - UT","gsf":48422,"nsf":44093,"latitude":41.309701,"longitude":-72.931255,"distance":99.0},{"site":"CEN","zone":"ZONE 3","buildingID":359,"facid":"2650","name":"VANDERBILT HALL","abbr":"V","address":"CHAPEL STREET, 1035","searchable":"2650 VANDERBILT HALL CHAPEL STREET, 1035  VANDERBILT HALL V 1035 CHAPEL STREET CHAPEL ST, 1035 VANDERBILT HALL","gsf":79459,"nsf":57553,"latitude":41.30788,"longitude":-72.929339,"distance":99.0},{"site":"CEN","zone":"ZONE 3","buildingID":277,"facid":"2030","name":"W. L. HARKNESS HALL","abbr":"WLH","address":"WALL STREET, 100","searchable":"2030 W. L. HARKNESS HALL WALL STREET, 100  HARKNESS HALL, WILLIAM L. WLH 100 WALL STREET WALL ST,100 WILLIAM HARKNESS HALL - WLH","gsf":52183,"nsf":41531,"latitude":41.310617,"longitude":-72.92687,"distance":99.0},{"site":"CEN","zone":"ZONE 3","buildingID":250,"facid":"1840","name":"WALL ST, 53","abbr":"WALL53","address":"WALL STREET,  53","searchable":"1840 WALL ST, 53 WALL STREET,  53 TRINITY CHURCH PARISH HSE WALL STREET, 53 WALL53 53 WALL STREET WALL ST, 53 ","gsf":38314,"nsf":30931,"latitude":41.309813,"longitude":-72.923678,"distance":99.0},{"site":"CEN","zone":"ZONE 3","buildingID":256,"facid":"1920","name":"WALL ST, 66","abbr":"WALL66","address":"WALL STREET,  66","searchable":"1920 WALL ST, 66 WALL STREET,  66 JOHN A. LYNDE HOUSE WALL STREET, 66 WALL66 66 WALL STREET WALL ST, 66 ","gsf":6937,"nsf":6063,"latitude":41.310013,"longitude":-72.924781,"distance":99.0},{"site":"CEN","zone":"ZONE 3","buildingID":253,"facid":"1905","name":"WALL ST, 82-90","abbr":"WALL82","address":"WALL STREET,  82-90","searchable":"1905 WALL ST, 82-90 WALL STREET,  82-90  WALL STREET, 82-90 WALL82 82-90 WALL STREET WALL ST, 82 82 WALL","gsf":34679,"nsf":28066,"latitude":41.310348,"longitude":-72.925617,"distance":99.0},{"site":"CEN","zone":"ZONE 2","buildingID":227,"facid":"1625","name":"WARNER HOUSE","abbr":"WARNER","address":"HILLHOUSE AVENUE,  1","searchable":"1625 WARNER HOUSE HILLHOUSE AVENUE,  1 CLOISTER HOUSE WARNER HOUSE WARNER 1 HILLHOUSE AVENUE HILLHOUSE AVE,  1 ","gsf":22640,"nsf":18310,"latitude":41.311377,"longitude":-72.924115,"distance":99.0},{"site":"CEN","zone":"ZONE 2","buildingID":163,"facid":"1205","name":"WATSON CENTER","abbr":"WTS","address":"SACHEM STREET, 60","searchable":"1205 WATSON CENTER SACHEM STREET, 60  WATSON CENTER WTS 60 SACHEM STREET SACHEM ST, 60 ","gsf":41874,"nsf":35705,"latitude":41.315756,"longitude":-72.92372,"distance":99.0},{"site":"CEN","zone":"ZONE 4","buildingID":345,"facid":"2515","name":"WEIR HALL","abbr":"WEIR","address":"HIGH STREET, 66","searchable":"2515 WEIR HALL HIGH STREET, 66  WEIR HALL, JOHN F. WEIR 66 HIGH STREET HIGH ST, 66 JOHN WEIR HALL","gsf":19718,"nsf":13342,"latitude":41.30879,"longitude":-72.930364,"distance":99.0},{"site":"CEN","zone":"ZONE 3","buildingID":355,"facid":"2630","name":"WELCH HALL,HARMANUS","abbr":"W","address":"COLLEGE STREET, 330","searchable":"2630 WELCH HALL,HARMANUS COLLEGE STREET, 330  WELCH HALL, HARMANUS M. W 330 COLLEGE STREET COLLEGE ST, 330 WELCH HALL","gsf":40942,"nsf":30966,"latitude":41.308147,"longitude":-72.928369,"distance":99.0},{"site":"CEN","zone":"ZONE 2","buildingID":160,"facid":"1180","name":"WHITNEY AVE, 221","abbr":"WHIT221","address":"WHITNEY AVENUE, 221","searchable":"1180 WHITNEY AVE, 221 WHITNEY AVENUE, 221  WHITNEY AVENUE, 221 WHIT221 221 WHITNEY AVENUE WHITNEY AVE, 221 ","gsf":66582,"nsf":56820,"latitude":41.316733,"longitude":-72.919795,"distance":99.0},{"site":"CEN","zone":"ZONE 3","buildingID":275,"facid":"2020","name":"WOODBRIDGE HALL","abbr":"WOOD","address":"WALL STREET, 105","searchable":"2020 WOODBRIDGE HALL WALL STREET, 105  WOODBRIDGE HALL, TIMOTHY WOOD 105 WALL STREET WALL ST,105 TIMOTHY WOODBRIDGE HALL","gsf":11346,"nsf":8944,"latitude":41.31117,"longitude":-72.926693,"distance":99.0},{"site":"CEN","zone":"ZONE 3","buildingID":273,"facid":"2015","name":"WOOLSEY HALL","abbr":"WOOL","address":"COLLEGE STREET, 500","searchable":"2015 WOOLSEY HALL COLLEGE STREET, 500  WOOLSEY HALL WOOL 500 COLLEGE STREET COLLEGE ST, 500 WOOLSEY HALL","gsf":46148,"nsf":36896,"latitude":41.31129,"longitude":-72.926125,"distance":99.0},{"site":"CEN","zone":"ZONE 1","buildingID":116,"facid":"1020","name":"WRIGHT LAB","abbr":"WL","address":"WHITNEY AVENUE, 272","searchable":"1020 WRIGHT LAB WHITNEY AVENUE, 272 WRIGHT NUCLEAR STRUCTURES LABORATORY WRIGHT LABORATORY WL 272 WHITNEY AVENUE WHITNEY AVE, 272 WRIGHT NUCLEAR STRUCTURES LAB - WNSL","gsf":52325,"nsf":44880,"latitude":41.318961,"longitude":-72.920686,"distance":99.0},{"site":"CEN","zone":"ZONE 1","buildingID":119,"facid":"1025","name":"WRIGHT LAB - WEST","abbr":"WL-W","address":"WHITNEY AVENUE, 268","searchable":"1025 WRIGHT LAB - WEST WHITNEY AVENUE, 268 WRIGHT NUCLEAR STRUCTURES LABORATORY, WEST WRIGHT LABORATORY, WEST WL-W 268 WHITNEY AVENUE WHITNEY AVE, 268 WRIGHT NUCLEAR STRUCTURES LAB WEST - WNSLW","gsf":26931,"nsf":24735,"latitude":41.318459,"longitude":-72.921449,"distance":99.0},{"site":"CEN","zone":"ZONE 4","buildingID":4950,"facid":"1390","name":"YALE HEALTH CENTER","abbr":"YHC","address":"LOCK STREET, 55","searchable":"1390 YALE HEALTH CENTER LOCK STREET, 55  YALE HEALTH CENTER YHC 55 LOCK STREET LOCK ST, 55 ","gsf":147006,"nsf":128276,"latitude":41.315632,"longitude":-72.927574,"distance":99.0},{"site":"CEN","zone":"ZONE 4","buildingID":364,"facid":"2700","name":"YALE REPERTORY THEAT","abbr":"YRT","address":"CHAPEL STREET, 1120","searchable":"2700 YALE REPERTORY THEAT CHAPEL STREET, 1120 CALVARY BAPTIST CHURCH YALE REPERTORY THEATRE YRT 1120 CHAPEL STREET CHAPEL ST, 1120 YALE REPERTORY THEATRE - YRT","gsf":25705,"nsf":20966,"latitude":41.308064,"longitude":-72.931607,"distance":99.0},{"site":"CEN","zone":"ZONE 4","buildingID":347,"facid":"2520","name":"YALE U. ART GALLERY","abbr":"YUAG","address":"CHAPEL STREET, 1111","searchable":"2520 YALE U. ART GALLERY CHAPEL STREET, 1111  YALE UNIVERSITY ART GALLERY YUAG 1111 CHAPEL STREET CHAPEL ST, 1111 YALE UNIVERSITY ART GALLERY - AG","gsf":148245,"nsf":119749,"latitude":41.308313,"longitude":-72.930815,"distance":99.0},{"site":"CEN","zone":"LEASED","buildingID":203,"facid":"1436","name":"YORK SQUARE PL,  94","abbr":"YKSPL094","address":"YORK SQUARE PLACE, 94","searchable":"1436 YORK SQUARE PL,  94 YORK SQUARE PLACE, 94  YORK SQUARE PLACE, 94 YKSPL094 94 YORK SQUARE PLACE YORK SQ, 94 ","gsf":3710,"nsf":2223,"latitude":41.314112,"longitude":-72.929785,"distance":99.0},{"site":"CEN","zone":"ZONE 4","buildingID":374,"facid":"2745","name":"YORK ST, 149","abbr":"YORK149","address":"YORK STREET, 149","searchable":"2745 YORK ST, 149 YORK STREET, 149  YORK STREET, 149 YORK149 149 YORK STREET YORK ST, 149 ","gsf":58581,"nsf":53307,"latitude":41.30755,"longitude":-72.93193,"distance":99.0},{"site":"CEN","zone":"OUTSOURCE","buildingID":332,"facid":"2450","name":"YORK ST, 202","abbr":"YORK202","address":"YORK STREET, 202","searchable":"2450 YORK ST, 202 YORK STREET, 202  YORK STREET, 202 YORK202 202 YORK STREET YORK ST, 202 ","gsf":6799,"nsf":5207,"latitude":41.309127,"longitude":-72.931495,"distance":99.0},{"site":"CEN","zone":"ZONE 4","buildingID":331,"facid":"2445","name":"YORK ST, 212","abbr":"YORK212","address":"YORK STREET, 212","searchable":"2445 YORK ST, 212 YORK STREET, 212 ZETA PSI YORK STREET, 212 YORK212 212 YORK STREET YORK ST, 212 ","gsf":10127,"nsf":7867,"latitude":41.309502,"longitude":-72.932049,"distance":99.0},{"site":"CEN","zone":"ZONE 4","buildingID":330,"facid":"2440","name":"YORK ST, 220","abbr":"YORK220","address":"YORK STREET, 220","searchable":"2440 YORK ST, 220 YORK STREET, 220 FENCE CLUB YORK STREET, 220 YORK220 220 YORK STREET YORK ST, 220 FENCE CLUB","gsf":12278,"nsf":9746,"latitude":41.309698,"longitude":-72.931865,"distance":99.0},{"site":"CEN","zone":"ZONE 4","buildingID":323,"facid":"2415","name":"YORK ST, 254 CLOSED PART OF DC NOW","abbr":"YORK254","address":"YORK STREET, 254","searchable":"2415 YORK ST, 254 CLOSED PART OF DC NOW YORK STREET, 254  YORK STREET, 254 CLOSED PART OF DC NOW YORK254 CLOSED PART OF DC NOW   ","gsf":4321,"nsf":3350,"latitude":0.0,"longitude":0.0,"distance":99.0}]},{"bsID":5,"bsName":"Served By CPP or SPP","bsPublic":1,"owner":"sa","sort":60,"buildings":[{"site":"CEN","zone":"ZONE 2","buildingID":218,"facid":"1530","name":"A.K. WATSON HALL","abbr":"AKW","address":"PROSPECT STREET,  51","searchable":"1530 A.K. WATSON HALL PROSPECT STREET,  51 SHEFFIELD CHEM LAB; SHEFFIELD LAB OF ENG. MECH. WATSON HALL, ARTHUR K. AKW 51 PROSPECT STREET PROSPECT ST,  51 A.K. WATSON HALL","gsf":52634,"nsf":41679,"latitude":41.313064,"longitude":-72.924933,"distance":99.0},{"site":"CEN","zone":"ZONE 2","buildingID":148,"facid":"1125","name":"ALLWIN HALL","abbr":"ALW","address":"HILLHOUSE AVENUE, 31","searchable":"1125 ALLWIN HALL HILLHOUSE AVENUE, 31 ABIGAIL WHELPLEY HOUSE ALLWIN HALL ALW 31 HILLHOUSE AVENUE HILLHOUSE AVE, 31 ","gsf":7433,"nsf":6369,"latitude":41.313919,"longitude":-72.923116,"distance":99.0},{"site":"MED","zone":"MEDICAL","buildingID":4723,"facid":"3070","name":"AMISTAD STREET BUILDING","abbr":"AMISB","address":"AMISTAD STREET, 10","searchable":"3070 AMISTAD STREET BUILDING AMISTAD STREET, 10  AMISTAD STREET BUILDING AMISB 10 AMISTAD STREET AMISTAD ST, 10 ","gsf":120896,"nsf":0,"latitude":41.300163,"longitude":-72.931774,"distance":99.0},{"site":"CEN","zone":"ZONE 4","buildingID":4788,"facid":"2403","name":"ARNOLD HALL","abbr":"ARN","address":"ELM STREET, 304","searchable":"2403 ARNOLD HALL ELM STREET, 304  ROBERT M. ARNOLD HALL ARN 304 ELM STREET ELM ST, 304 ","gsf":26159,"nsf":20850,"latitude":41.311041,"longitude":-72.93145,"distance":99.0},{"site":"CEN","zone":"ZONE 4","buildingID":195,"facid":"1413","name":"BAKER HALL","abbr":"BAKER","address":"TOWER PARKWAY,100","searchable":"1413 BAKER HALL TOWER PARKWAY,100 NEW RESIDENCE HALL/ASHMUN STREET, 40 ROBERT C \u0026 CHRISTINA BAKER HALL AT YALE LAW SCHOOL BAKER 100 TOWER PARKWAY TOWER PKWY,100 NEW RESIDENCE HALL","gsf":137443,"nsf":113722,"latitude":41.313749,"longitude":-72.929123,"distance":99.0},{"site":"CEN","zone":"ZONE 1","buildingID":120,"facid":"1030","name":"BASS CENTER","abbr":"BASS","address":"WHITNEY AVENUE, 266","searchable":"1030 BASS CENTER WHITNEY AVENUE, 266  NANCY LEE \u0026 PERRY R. BASS CENTER FOR ... BASS 266 WHITNEY AVENUE WHITNEY AVE, 266 BASS CENTER MOLECULAR \u0026 STRUCTURAL BIOLOGY - MBB","gsf":91153,"nsf":77425,"latitude":41.318122,"longitude":-72.921837,"distance":99.0},{"site":"CEN","zone":"ZONE 3","buildingID":280,"facid":"2045","name":"BASS LIBRARY","abbr":"BASSLB","address":"WALL STREET, 110","searchable":"2045 BASS LIBRARY WALL STREET, 110 CROSS CAMPUS LIBRARY - CCL ANNE T. \u0026 ROBERT M. BASS LIBRARY BASSLB 110 WALL STREET WALL ST, 110 CROSS CAMPUS LIBRARY - CCL","gsf":64505,"nsf":55650,"latitude":41.310685,"longitude":-72.927608,"distance":99.0},{"site":"CEN","zone":"ZONE 3","buildingID":351,"facid":"2610","name":"BATTELL CHAPEL","abbr":"BATTELL","address":"COLLEGE STREET, 400","searchable":"2610 BATTELL CHAPEL COLLEGE STREET, 400  BATTELL CHAPEL, JOSEPH BATTELL 400 COLLEGE STREET COLLEGE ST, 400 JOSEPH BATTELL CHAPEL","gsf":28097,"nsf":22782,"latitude":41.309372,"longitude":-72.927515,"distance":99.0},{"site":"CEN","zone":"ZONE 1","buildingID":217,"facid":"1525","name":"BECTON E\u0026AS CENTER","abbr":"BCT","address":"PROSPECT STREET,  15","searchable":"1525 BECTON E\u0026AS CENTER PROSPECT STREET,  15  BECTON ENGINEERING AND APPLIED SCIENCE CENTER, HENRY P. BCT 15 PROSPECT STREET PROSPECT ST,  15 BECTON ENG \u0026 APPLIED SCIENCE CENTER - BC - E\u0026AS","gsf":141973,"nsf":119984,"latitude":41.312583,"longitude":-72.925221,"distance":99.0},{"site":"CEN","zone":"ZONE 3","buildingID":270,"facid":"2005","name":"BEINECKE LIBRARY","abbr":"BRBL","address":"WALL STREET, 121","searchable":"2005 BEINECKE LIBRARY WALL STREET, 121  BEINECKE RARE BOOK AND MANUSCRIPT LIBRARY BRBL 121 WALL STREET WALL ST,121 BEINECKE RARE BOOK \u0026 MANUSCRIPT LIBRARY - BRBL","gsf":105367,"nsf":91565,"latitude":41.311564,"longitude":-72.927303,"distance":99.0},{"site":"CEN","zone":"ZONE 3","buildingID":279,"facid":"2040","name":"BERKELEY COLLEGE","abbr":"BK","address":"ELM STREET, 205","searchable":"2040 BERKELEY COLLEGE ELM STREET, 205  BERKELEY COLLEGE, GEORGE BK 205 ELM STREET ELM ST, 205 BERKELEY COLLEGE - BK","gsf":146338,"nsf":113453,"latitude":41.310305,"longitude":-72.928105,"distance":99.0},{"site":"CEN","zone":"OUTSOURCE","buildingID":36,"facid":"0435","name":"BETTS HOUSE","abbr":"BETTS","address":"PROSPECT STREET, 393","searchable":"0435 BETTS HOUSE PROSPECT STREET, 393 DAVIES HOUSE, JOHN M.; CULINARY INST OF AMER BETTS HOUSE BETTS 393 PROSPECT STREET PROSPECT ST, 393 BETTS HOUSE - DAVIES MANSION","gsf":21889,"nsf":17489,"latitude":41.322497,"longitude":-72.922121,"distance":99.0},{"site":"CEN","zone":"ZONE 3","buildingID":356,"facid":"2635","name":"BINGHAM HALL,CHARLES","abbr":"BM","address":"COLLEGE STREET, 300","searchable":"2635 BINGHAM HALL,CHARLES COLLEGE STREET, 300  BINGHAM HALL, CHARLES W. BM 300 COLLEGE STREET COLLEGE ST, 300 BINGHAM HALL - BM","gsf":62202,"nsf":48607,"latitude":41.30772,"longitude":-72.928737,"distance":99.0},{"site":"MED","zone":"MEDICAL","buildingID":414,"facid":"3355","name":"BOARDMAN BLDG","abbr":"BB","address":"CEDAR STREET, 330","searchable":"3355 BOARDMAN BLDG CEDAR STREET, 330  BOARDMAN BUILDING BB 330 CEDAR STREET CEDAR ST, 330 BOARDMAN BLDG - BB","gsf":30510,"nsf":0,"latitude":41.302664,"longitude":-72.934334,"distance":99.0},{"site":"MED","zone":"MEDICAL","buildingID":399,"facid":"3165","name":"BOYER CTR MOLEC MED","abbr":"BCMM","address":"CONGRESS AVENUE, 295","searchable":"3165 BOYER CTR MOLEC MED CONGRESS AVENUE, 295  BOYER CENTER FOR MOLECULAR MEDICINE BCMM 295 CONGRESS AVENUE CONGRESS AVE, 295 BOYER CENTER FOR MOLECULAR MEDICINE - BCMM","gsf":147290,"nsf":0,"latitude":41.302396,"longitude":-72.932705,"distance":99.0},{"site":"MED","zone":"MEDICAL","buildingID":417,"facid":"3375","name":"BRADY MEMORIAL LABOR","abbr":"BML","address":"CEDAR STREET, 310","searchable":"3375 BRADY MEMORIAL LABOR CEDAR STREET, 310  BRADY MEMORIAL LABORATORY, ANTHONY N. BML 310 CEDAR STREET CEDAR ST, 310 BRADY MEMORIAL LAB - BML","gsf":102104,"nsf":0,"latitude":41.302205,"longitude":-72.93404,"distance":99.0},{"site":"CEN","zone":"ZONE 4","buildingID":343,"facid":"2505","name":"BRANFORD COLLEGE","abbr":"BR","address":"HIGH STREET, 74","searchable":"2505 BRANFORD COLLEGE HIGH STREET, 74  BRANFORD COLLEGE BR 74 HIGH STREET HIGH ST, 74 BRANFORD COLLEGE - BR","gsf":154221,"nsf":115837,"latitude":41.310308,"longitude":-72.928117,"distance":99.0},{"site":"CEN","zone":"ZONE 4","buildingID":366,"facid":"2705","name":"BRITISH ART, YALE CTR","abbr":"YCBA","address":"CHAPEL STREET, 1080","searchable":"2705 BRITISH ART, YALE CTR CHAPEL STREET, 1080  YALE CENTER FOR BRITISH ART YCBA 1080 CHAPEL STREET CHAPEL ST, 1080 BRITISH ART CENTER","gsf":112612,"nsf":99460,"latitude":41.307776,"longitude":-72.930972,"distance":99.0},{"site":"CEN","zone":"LEASED","buildingID":294,"facid":"2140","name":"BROADWAY, 77","abbr":"BRWY77","address":"BROADWAY, 77","searchable":"2140 BROADWAY, 77 BROADWAY, 77 YALE CO-OP BROADWAY, 77 BRWY77 77 BROADWAY BROADWAY, 77 77 BROAD","gsf":48281,"nsf":0,"latitude":41.311776,"longitude":-72.931241,"distance":99.0},{"site":"CEN","zone":"ZONE 3","buildingID":278,"facid":"2035","name":"CALHOUN COLLEGE,JOHN","abbr":"CC","address":"ELM STREET, 189","searchable":"2035 CALHOUN COLLEGE,JOHN ELM STREET, 189  CALHOUN COLLEGE, JOHN C. CC 189 ELM STREET ELM ST, 189 CALHOUN COLLEGE - CC","gsf":131329,"nsf":100019,"latitude":41.309936,"longitude":-72.927225,"distance":99.0},{"site":"CEN","zone":"ZONE 1","buildingID":111,"facid":"1006","name":"CHEMICAL SAFETY BLDG","abbr":"CSB","address":"EDWARDS STREET, 350","searchable":"1006 CHEMICAL SAFETY BLDG EDWARDS STREET, 350  CHEMICAL SAFETY BUILDING CSB 350 EDWARDS STREET EDWARDS ST, 350 CHEMICAL SAFETY BLDG","gsf":8755,"nsf":6954,"latitude":41.318929,"longitude":-72.921959,"distance":99.0},{"site":"CEN","zone":"ZONE 1","buildingID":4751,"facid":"1093","name":"CHEMISTRY RES BLDG","abbr":"CRB","address":"PROSPECT STREET, 275","searchable":"1093 CHEMISTRY RES BLDG PROSPECT STREET, 275  CHEMISTRY RESEARCH BUILDING, CLASS OF 1954 CRB 275 PROSPECT STREET PROSPECT ST, 275 ","gsf":117985,"nsf":98155,"latitude":41.319259,"longitude":-72.922661,"distance":99.0},{"site":"CEN","zone":"ZONE 3","buildingID":248,"facid":"1835","name":"CHURCH ST, 246","abbr":"CHUR246","address":"CHURCH STREET, 246","searchable":"1835 CHURCH ST, 246 CHURCH STREET, 246  CHURCH STREET, 246 CHUR246 246 CHURCH STREET CHURCH ST, 246 ","gsf":32625,"nsf":28560,"latitude":41.310002,"longitude":-72.923337,"distance":99.0},{"site":"CEN","zone":"ZONE 3","buildingID":247,"facid":"1830","name":"CHURCH ST, 250","abbr":"CHUR250","address":"CHURCH STREET, 250","searchable":"1830 CHURCH ST, 250 CHURCH STREET, 250 PRESIDENT WOOLSEY HOUSE CHURCH STREET, 250 CHUR250 250 CHURCH STREET CHURCH ST, 250 ","gsf":11578,"nsf":9551,"latitude":41.310132,"longitude":-72.923057,"distance":99.0},{"site":"CEN","zone":"ZONE 3","buildingID":246,"facid":"1825","name":"CHURCH ST, 258/GROVE,96","abbr":"CHUR258","address":"CHURCH STREET, 258","searchable":"1825 CHURCH ST, 258/GROVE,96 CHURCH STREET, 258 GROVE ST, 96 2ND ENTRNC/ABBY SALISBURY/ELFORD P. TROWBRIDGE HSE CHURCH STREET, 258 CHUR258 258 CHURCH STREET CHURCH ST, 258 ","gsf":11078,"nsf":9252,"latitude":41.31039,"longitude":-72.922927,"distance":99.0},{"site":"MED","zone":"MEDICAL","buildingID":415,"facid":"3360","name":"CLINIC BLDG","abbr":"CB","address":"HOWARD AVENUE, 789","searchable":"3360 CLINIC BLDG HOWARD AVENUE, 789  CLINIC BUILDING CB 789 HOWARD AVENUE HOWARD AVE, 789 CLINIC BLDG - CB","gsf":43935,"nsf":0,"latitude":41.302663,"longitude":-72.935079,"distance":99.0},{"site":"MED","zone":"MEDICAL","buildingID":386,"facid":"3050","name":"COLLEGE PLACE","abbr":"CLP","address":"COLLEGE STREET,  37-55","searchable":"3050 COLLEGE PLACE COLLEGE STREET,  37-55  COLLEGE PLACE CLP 37-55 COLLEGE STREET COLLEGE ST, 37 37 COLLEGE PLACE","gsf":64471,"nsf":0,"latitude":41.302996,"longitude":-72.931509,"distance":99.0},{"site":"CEN","zone":"ZONE 3","buildingID":264,"facid":"1955","name":"COLLEGE ST, 451","abbr":"COLL451","address":"COLLEGE STREET, 451","searchable":"1955 COLLEGE ST, 451 COLLEGE STREET, 451 FRANKLIN HALL/THETA XI ALUMNI HALL COLLEGE STREET, 451 COLL451 451 COLLEGE STREET COLLEGE ST, 451 ","gsf":18378,"nsf":15125,"latitude":41.310136,"longitude":-72.926232,"distance":99.0},{"site":"CEN","zone":"ZONE 3","buildingID":244,"facid":"1810","name":"COLLEGE ST, 493","abbr":"COLL493","address":"COLLEGE STREET, 493","searchable":"1810 COLLEGE ST, 493 COLLEGE STREET, 493  COLLEGE STREET, 493 COLL493 493 COLLEGE STREET COLLEGE ST, 493 ","gsf":20220,"nsf":14603,"latitude":41.310847,"longitude":-72.925666,"distance":99.0},{"site":"MED","zone":"MEDICAL","buildingID":383,"facid":"3000","name":"CONGRESS PLACE","abbr":"CP","address":"CEDAR STREET, 301","searchable":"3000 CONGRESS PLACE CEDAR STREET, 301 YALE PSYCHIATRIC INSTITUTE, BUILDING 1 CONGRESS PLACE CP 301 CEDAR STREET CEDAR ST, 301 YALE PSYCHIATRIC INSTITUTE, YPI1 (Congress Plac","gsf":20201,"nsf":0,"latitude":41.301779,"longitude":-72.933291,"distance":99.0},{"site":"CEN","zone":"ZONE 3","buildingID":357,"facid":"2640","name":"CONNECTICUT HALL","abbr":"C","address":"CHAPEL STREET, 1017","searchable":"2640 CONNECTICUT HALL CHAPEL STREET, 1017 SOUTH MIDDLE COLLEGE CONNECTICUT HALL C 1017 CHAPEL STREET CHAPEL ST, 1017 CONNECTICUT HALL","gsf":18543,"nsf":13795,"latitude":41.308085,"longitude":-72.928888,"distance":99.0},{"site":"MED","zone":"MEDICAL","buildingID":406,"facid":"3315","name":"DANA CLINIC BLDG","abbr":"DCB","address":"HOWARD AVENUE, 789","searchable":"3315 DANA CLINIC BLDG HOWARD AVENUE, 789  DANA CLINIC BUILDING DCB 789 HOWARD AVENUE HOWARD AVE, 789 DANA CLINIC BLDG - DCB","gsf":22500,"nsf":0,"latitude":41.302453,"longitude":-72.935721,"distance":99.0},{"site":"CEN","zone":"ZONE 4","buildingID":324,"facid":"2420","name":"DAVENPORT COLLEGE","abbr":"DC","address":"YORK STREET, 248","searchable":"2420 DAVENPORT COLLEGE YORK STREET, 248  DAVENPORT COLLEGE, JOHN DC 248 YORK STREET YORK ST, 248 DAVENPORT COLLEGE - DC","gsf":157488,"nsf":123243,"latitude":41.310418,"longitude":-72.931252,"distance":99.0},{"site":"CEN","zone":"ZONE 2","buildingID":226,"facid":"1620","name":"DOW HALL","abbr":"DOW","address":"TEMPLE STREET, 370","searchable":"1620 DOW HALL TEMPLE STREET, 370 TEMPLE ST, 370; VERNON HALL DOW HALL, CHRISTINA AND ROBERT DOW 370 TEMPLE STREET TEMPLE ST, 370 ","gsf":21355,"nsf":16042,"latitude":41.311315,"longitude":-72.923886,"distance":99.0},{"site":"CEN","zone":"ZONE 1","buildingID":214,"facid":"1510","name":"DUNHAM LAB","abbr":"DL","address":"HILLHOUSE AVENUE, 10","searchable":"1510 DUNHAM LAB HILLHOUSE AVENUE, 10  DUNHAM LABORATORY, AUSTIN C. DL 10 HILLHOUSE AVENUE HILLHOUSE AVE, 10 DUNHAM LAB","gsf":78132,"nsf":66471,"latitude":41.312299,"longitude":-72.924548,"distance":99.0},{"site":"CEN","zone":"ZONE 3","buildingID":350,"facid":"2605","name":"DURFEE HALL,BRADFORD","abbr":"D","address":"ELM STREET, 198","searchable":"2605 DURFEE HALL,BRADFORD ELM STREET, 198  DURFEE HALL, BRADFORD M.C. D 198 ELM STREET ELM ST, 198 BRADFORD DURFEE HALL","gsf":43805,"nsf":33654,"latitude":41.309622,"longitude":-72.928056,"distance":99.0},{"site":"CEN","zone":"ZONE 3","buildingID":362,"facid":"2665","name":"DWIGHT HALL \u0026 CHAPEL","abbr":"DW","address":"HIGH STREET, 67","searchable":"2665 DWIGHT HALL \u0026 CHAPEL HIGH STREET, 67 YALE COLLEGE LIBRARY DWIGHT HALL AND CHAPEL DW 67 HIGH STREET HIGH ST, 67 DWIGHT HALL \u0026  CHAPEL - DW","gsf":18074,"nsf":13907,"latitude":41.308927,"longitude":-72.929303,"distance":99.0},{"site":"MED","zone":"MEDICAL","buildingID":396,"facid":"3150","name":"E.S. HARKNESS BLDG D","abbr":"ESHD","address":"CEDAR STREET, 367","searchable":"3150 E.S. HARKNESS BLDG D CEDAR STREET, 367  EDWARD S. HARKNESS HALL BUILDING D ESHD 367 CEDAR STREET CEDAR ST, 367 EDWARD HARKNESS MEMORIAL DORMITORY - ESHD","gsf":125640,"nsf":0,"latitude":41.304411,"longitude":-72.933917,"distance":99.0},{"site":"CEN","buildingID":4968,"facid":"1152","name":"EDWARD P EVANS HALL","abbr":"EVANS","address":"WHITNEY AVENUE, 165","searchable":"1152 EDWARD P EVANS HALL WHITNEY AVENUE, 165  EDWARD P. EVANS HALL EVANS 165 WHITNEY AVENUE WHITNEY AVE, 165 ","gsf":342545,"nsf":293371,"latitude":41.315074,"longitude":-72.920063,"distance":99.0},{"site":"CEN","zone":"ZONE 1","buildingID":118,"facid":"1023","name":"ELECTRON ACCEL. LAB","abbr":"EAL","address":"WHITNEY AVENUE, 270","searchable":"1023 ELECTRON ACCEL. LAB WHITNEY AVENUE, 270  ELECTRON ACCELERATOR LABORATORIES EAL 270 WHITNEY AVENUE WHITNEY AVE, 270 ELECTRON ACCELERATOR LAB - ELECACCLAB","gsf":18824,"nsf":15759,"latitude":41.319079,"longitude":-72.921166,"distance":99.0},{"site":"CEN","zone":"ZONE 3","buildingID":266,"facid":"1960","name":"ELIZABETHAN CLUB","abbr":"COLL459","address":"COLLEGE STREET, 459","searchable":"1960 ELIZABETHAN CLUB COLLEGE STREET, 459 LEVERETT GRISWOLD HOUSE ELIZABETHAN CLUB COLL459 459 COLLEGE STREET COLLEGE ST, 459 ELIZABETHAN CLUB","gsf":0,"nsf":0,"latitude":41.310329,"longitude":-72.926123,"distance":99.0},{"site":"CEN","zone":"ZONE 3","buildingID":259,"facid":"1935","name":"ELM ST, 143","abbr":"ELM143","address":"ELM STREET, 143","searchable":"1935 ELM ST, 143 ELM STREET, 143 RALPH INGERSOLL HOUSE ELM STREET, 143 ELM143 143 ELM STREET ELM ST, 143 ","gsf":11636,"nsf":9583,"latitude":41.309067,"longitude":-72.925455,"distance":99.0},{"site":"CEN","zone":"ZONE 3","buildingID":260,"facid":"1940","name":"ELM ST, 149","abbr":"ELM149","address":"ELM STREET, 149","searchable":"1940 ELM ST, 149 ELM STREET, 149 JOHN PIERPONT HOUSE ELM STREET, 149 ELM149 149 ELM STREET ELM ST, 149 ","gsf":15435,"nsf":10792,"latitude":41.309182,"longitude":-72.925639,"distance":99.0},{"site":"CEN","zone":"ZONE 4","buildingID":318,"facid":"2405","name":"ELM ST, 294-296","abbr":"ELM294","address":"ELM STREET, 294-296","searchable":"2405 ELM ST, 294-296 ELM STREET, 294-296 ELM ST, 294-296 ELM STREET,  294-296 ELM294 294-296 ELM STREET ELM ST, 294 ","gsf":8539,"nsf":7415,"latitude":41.31066,"longitude":-72.930282,"distance":99.0},{"site":"CEN","zone":"LEASED","buildingID":315,"facid":"2400","name":"ELM ST, 316-320","abbr":"ELM316","address":"ELM STREET, 316-320","searchable":"2400 ELM ST, 316-320 ELM STREET, 316-320  ELM STREET, 316-320 ELM316 316-320 ELM STREET ELM ST, 316 316 ELM","gsf":15170,"nsf":0,"latitude":41.31114,"longitude":-72.931728,"distance":99.0},{"site":"CEN","zone":"ZONE 1","buildingID":125,"facid":"1049","name":"ENVIRONMTL SCIENCE CTR","abbr":"ESC","address":"SACHEM STREET, 21","searchable":"1049 ENVIRONMTL SCIENCE CTR SACHEM STREET, 21  ENVIRONMENTAL SCIENCE CENTER, CLASS OF 54 ESC 21 SACHEM STREET SACHEM ST, 21 ENVIRONMENTAL SCIENCE CENTER","gsf":99341,"nsf":87240,"latitude":41.316078,"longitude":-72.921769,"distance":99.0},{"site":"CEN","zone":"ZONE 2","buildingID":164,"facid":"1210","name":"EVANS HALL, THOMAS M.","abbr":"EVN","address":"HILLHOUSE AVENUE, 56","searchable":"1210 EVANS HALL, THOMAS M. HILLHOUSE AVENUE, 56 ELIZABETH APTHORP HOUSE EVANS HALL, THOMAS MELLON EVN 56 HILLHOUSE AVENUE HILLHOUSE AVE, 56 EVANS HALL","gsf":12659,"nsf":10154,"latitude":41.315689,"longitude":-72.923332,"distance":99.0},{"site":"CEN","zone":"ZONE 4","buildingID":295,"facid":"2145","name":"EZRA STILES COLLEGE","abbr":"ES","address":"YORK STREET, 302","searchable":"2145 EZRA STILES COLLEGE YORK STREET, 302  STILES COLLEGE, EZRA ES 302 YORK STREET YORK ST, 302 EZRA STILES COLLEGE - ES","gsf":144250,"nsf":117057,"latitude":41.312485,"longitude":-72.930846,"distance":99.0},{"site":"CEN","zone":"ZONE 3","buildingID":352,"facid":"2615","name":"FARNAM HALL, HENRY","abbr":"F","address":"COLLEGE STREET, 380","searchable":"2615 FARNAM HALL, HENRY COLLEGE STREET, 380  FARNAM HALL, HENRY F 380 COLLEGE STREET COLLEGE ST, 380 HENRY FARNAM HALL","gsf":30353,"nsf":22986,"latitude":41.309048,"longitude":-72.927711,"distance":99.0},{"site":"MED","zone":"MEDICAL","buildingID":419,"facid":"3385","name":"FARNAM MEMORIAL BLDG","abbr":"FMB","address":"CEDAR STREET, 310","searchable":"3385 FARNAM MEMORIAL BLDG CEDAR STREET, 310  FARNAM MEMORIAL BUILDING FMB 310 CEDAR STREET CEDAR ST, 310 FARNAM MEMORIAL BLDG - FMB","gsf":83750,"nsf":0,"latitude":41.302207,"longitude":-72.934762,"distance":99.0},{"site":"MED","zone":"MEDICAL","buildingID":411,"facid":"3340","name":"FITKIN MEM. PAV. AUD.","abbr":"FMPA","address":"HOWARD AVENUE, 789","searchable":"3340 FITKIN MEM. PAV. AUD. HOWARD AVENUE, 789  FITKIN MEMORIAL PAVILION  AUDITORIUM FMPA 789 HOWARD AVENUE HOWARD AVE, 789 FITKIN MEMORIAL PAVILION  AUDITORIUM - FMPA","gsf":2930,"nsf":0,"latitude":41.303029,"longitude":-72.934918,"distance":99.0},{"site":"MED","zone":"MEDICAL","buildingID":407,"facid":"3320","name":"FITKIN MEM. PAVILION","abbr":"FMP","address":"HOWARD AVENUE, 789","searchable":"3320 FITKIN MEM. PAVILION HOWARD AVENUE, 789  FITKIN MEMORIAL PAVILION FMP 789 HOWARD AVENUE HOWARD AVE, 789 FITKIN MEMORIAL PAVILION - FMP","gsf":34100,"nsf":0,"latitude":41.302826,"longitude":-72.935595,"distance":99.0},{"site":"CEN","zone":"ZONE 2","buildingID":162,"facid":"1200","name":"FOUNDERS HALL","abbr":"FND","address":"PROSPECT STREET, 135","searchable":"1200 FOUNDERS HALL PROSPECT STREET, 135 JOHN P. NORTON CARR HSE; YERKES LABS; PROSP. HILL DAY SCH; YALE OBSERV. FOUNDERS HALL FND 135 PROSPECT STREET PROSPECT ST, 135 ","gsf":13909,"nsf":11178,"latitude":41.31569,"longitude":-72.924257,"distance":99.0},{"site":"MED","zone":"MEDICAL","buildingID":21,"facid":"3245","name":"GRACE BLDG - RAZED","abbr":"GB","address":"PARK STREET,  25","searchable":"3245 GRACE BLDG - RAZED PARK STREET,  25  GRACE BUILDING - RAZED GB - RAZED   ","gsf":0,"nsf":0,"latitude":0.0,"longitude":0.0,"distance":99.0},{"site":"CEN","zone":"ZONE 4","buildingID":333,"facid":"2455","name":"GRAD-PRO STUDENT CTR","abbr":"GPSCY","address":"YORK STREET, 204","searchable":"2455 GRAD-PRO STUDENT CTR YORK STREET, 204 BETA THETA PI YORK STREET, 204 GPSCY 204 YORK STREET YORK ST, 204 GRAD-PRO STUDENT CTR - GYPSY","gsf":11274,"nsf":9200,"latitude":41.309298,"longitude":-72.931908,"distance":99.0},{"site":"CEN","zone":"ZONE 4","buildingID":377,"facid":"2770","name":"GREEN HALL","abbr":"GRN","address":"CHAPEL STREET, 1156","searchable":"2770 GREEN HALL CHAPEL STREET, 1156 CHAPEL ST, 1156 GREEN HALL, HOLCOMBE T., JR. GRN 1156 CHAPEL STREET CHAPEL ST, 1156 HOLCOMBE GREEN HALL","gsf":76390,"nsf":66119,"latitude":41.308741,"longitude":-72.932343,"distance":99.0},{"site":"CEN","zone":"OUTSOURCE","buildingID":4988,"facid":"0434","name":"GREENBERG CONF CENTER","abbr":"GBCC","address":"PROSPECT STREET, 391","searchable":"0434 GREENBERG CONF CENTER PROSPECT STREET, 391  GREENBERG CONFERENCE CENTER, MAURICE R. GBCC 391 PROSPECT STREET PROSPECT ST, 391 ","gsf":13642,"nsf":11691,"latitude":41.322215,"longitude":-72.921924,"distance":99.0},{"site":"CEN","zone":"ZONE 4","buildingID":284,"facid":"2105","name":"HALL OF GRAD STUDIES","abbr":"HGS","address":"YORK STREET, 320","searchable":"2105 HALL OF GRAD STUDIES YORK STREET, 320  HALL OF GRADUATE STUDIES HGS 320 YORK STREET YORK ST, 320 HALL OF GRADUATE STUDIES - HGS","gsf":195442,"nsf":156962,"latitude":41.31224,"longitude":-72.929413,"distance":99.0},{"site":"CEN","zone":"ZONE 2","buildingID":225,"facid":"1615","name":"HELEN HADLEY HALL","abbr":"HHH","address":"TEMPLE STREET, 420","searchable":"1615 HELEN HADLEY HALL TEMPLE STREET, 420  HADLEY HALL, HELEN MORRIS HHH 420 TEMPLE STREET TEMPLE ST, 420 HELEN HADLEY HALL MORRIS - HHH","gsf":64801,"nsf":57322,"latitude":41.312524,"longitude":-72.923042,"distance":99.0},{"site":"CEN","zone":"ZONE 3","buildingID":261,"facid":"1945","name":"HENDRIE HALL","abbr":"HENDRIE","address":"ELM STREET, 165","searchable":"1945 HENDRIE HALL ELM STREET, 165  HENDRIE HALL HENDRIE 165 ELM STREET ELM ST, 165 HENDRIE HALL","gsf":34719,"nsf":27885,"latitude":41.309383,"longitude":-72.926175,"distance":99.0},{"site":"CEN","zone":"ZONE 2","buildingID":229,"facid":"1635","name":"HILLHOUSE AVE,15","abbr":"HLH15","address":"HILLHOUSE AVENUE, 15","searchable":"1635 HILLHOUSE AVE,15 HILLHOUSE AVENUE, 15 YORK HALL, ALPHA DELTA PHI HILLHOUSE AVENUE, 15 HLH15 15 HILLHOUSE AVENUE HILLHOUSE AVE, 15 ","gsf":8502,"nsf":7009,"latitude":41.31241,"longitude":-72.923706,"distance":99.0},{"site":"CEN","zone":"ZONE 2","buildingID":230,"facid":"1640","name":"HILLHOUSE AVE,17","abbr":"HLH17","address":"HILLHOUSE AVENUE, 17","searchable":"1640 HILLHOUSE AVE,17 HILLHOUSE AVENUE, 17 UNIVERSITY HEALTH SERVICES CENTER HILLHOUSE AVENUE, 17 HLH17 17 HILLHOUSE AVENUE HILLHOUSE AVE, 17 UNIVERSITY HEALTH SERVICES CENTER","gsf":90568,"nsf":79638,"latitude":41.312781,"longitude":-72.923576,"distance":99.0},{"site":"CEN","zone":"ZONE 2","buildingID":147,"facid":"1120","name":"HILLHOUSE AVE,27","abbr":"HLH27","address":"HILLHOUSE AVENUE, 27","searchable":"1120 HILLHOUSE AVE,27 HILLHOUSE AVENUE, 27 REV PROF GEORGE PARK FISHER HOUSE HILLHOUSE AVENUE, 27 HLH27 27 HILLHOUSE AVENUE HILLHOUSE AVE, 27 ","gsf":13023,"nsf":9096,"latitude":41.313684,"longitude":-72.923163,"distance":99.0},{"site":"CEN","zone":"ZONE 2","buildingID":169,"facid":"1235","name":"HILLHOUSE AVE,28","abbr":"HLH28","address":"HILLHOUSE AVENUE, 28","searchable":"1235 HILLHOUSE AVE,28 HILLHOUSE AVENUE, 28 CHARLES HENRY FARNAM HOUSE HILLHOUSE AVENUE, 28 HLH28 28 HILLHOUSE AVENUE HILLHOUSE AVE, 28 ","gsf":15312,"nsf":12311,"latitude":41.313861,"longitude":-72.923997,"distance":99.0},{"site":"CEN","zone":"ZONE 2","buildingID":168,"facid":"1230","name":"HILLHOUSE AVE,30","abbr":"HLH30","address":"HILLHOUSE AVENUE, 30","searchable":"1230 HILLHOUSE AVE,30 HILLHOUSE AVENUE, 30  HILLHOUSE AVENUE, 30 HLH30 30 HILLHOUSE AVENUE HILLHOUSE AVE, 30 ","gsf":15988,"nsf":12899,"latitude":41.314053,"longitude":-72.923937,"distance":99.0},{"site":"CEN","zone":"ZONE 2","buildingID":149,"facid":"1130","name":"HILLHOUSE AVE,35","abbr":"HLH35","address":"HILLHOUSE AVENUE, 35","searchable":"1130 HILLHOUSE AVE,35 HILLHOUSE AVENUE, 35 MARY PRICHARD HOUSE HILLHOUSE AVENUE, 35 HLH35 35 HILLHOUSE AVENUE HILLHOUSE AVE, 35 ","gsf":10033,"nsf":8123,"latitude":41.314187,"longitude":-72.922896,"distance":99.0},{"site":"CEN","zone":"ZONE 2","buildingID":151,"facid":"1135","name":"HILLHOUSE AVE,37","abbr":"HLH37","address":"HILLHOUSE AVENUE, 37","searchable":"1135 HILLHOUSE AVE,37 HILLHOUSE AVENUE, 37 JOHN S GRAVES HSE; DANIEL COIT GILMAN HSE HILLHOUSE AVENUE, 37 HLH37 37 HILLHOUSE AVENUE HILLHOUSE AVE, 37 ","gsf":11239,"nsf":9382,"latitude":41.314479,"longitude":-72.922822,"distance":99.0},{"site":"CEN","zone":"ZONE 2","buildingID":167,"facid":"1225","name":"HILLHOUSE AVE,38","abbr":"HLH38","address":"HILLHOUSE AVENUE, 38","searchable":"1225 HILLHOUSE AVE,38 HILLHOUSE AVENUE, 38 HENRY FOWLER ENGLISH HSE HILLHOUSE AVENUE, 38 HLH38 38 HILLHOUSE AVENUE HILLHOUSE AVE, 38 ","gsf":17060,"nsf":13282,"latitude":41.314576,"longitude":-72.923746,"distance":99.0},{"site":"CEN","zone":"ZONE 2","buildingID":152,"facid":"1140","name":"HILLHOUSE AVE,43","abbr":"HLH43","address":"HILLHOUSE AVENUE, 43","searchable":"1140 HILLHOUSE AVE,43 HILLHOUSE AVENUE, 43  HILLHOUSE AVENUE, 43 HLH43 43 HILLHOUSE AVENUE HILLHOUSE AVE, 43 ","gsf":20739,"nsf":16019,"latitude":41.314727,"longitude":-72.922714,"distance":99.0},{"site":"CEN","zone":"ZONE 2","buildingID":166,"facid":"1220","name":"HILLHOUSE AVE,46","abbr":"HLH46","address":"HILLHOUSE AVENUE, 46","searchable":"1220 HILLHOUSE AVE,46 HILLHOUSE AVENUE, 46 AARON N. SKINNER HSE; TROWBRIDGE HSE HILLHOUSE AVENUE, 46 HLH46 46 HILLHOUSE AVENUE HILLHOUSE AVE, 46 ","gsf":12023,"nsf":9618,"latitude":41.315049,"longitude":-72.923594,"distance":99.0},{"site":"CEN","zone":"ZONE 2","buildingID":153,"facid":"1145","name":"HILLHOUSE AVE,51","abbr":"HLH51","address":"HILLHOUSE AVENUE, 51","searchable":"1145 HILLHOUSE AVE,51 HILLHOUSE AVENUE, 51 JOHN M. GRAVES HSE; JAMES M. B. DWIGHT HSE HILLHOUSE AVENUE, 51 HLH51 51 HILLHOUSE AVENUE HILLHOUSE AVE, 51 ","gsf":9950,"nsf":8180,"latitude":41.315107,"longitude":-72.922615,"distance":99.0},{"site":"MED","zone":"MEDICAL","buildingID":387,"facid":"3100","name":"HOPE MEMORIAL BLDG","abbr":"JEH","address":"CEDAR STREET, 315","searchable":"3100 HOPE MEMORIAL BLDG CEDAR STREET, 315  HOPE MEMORIAL BUILDING, JANE ELLEN JEH 315 CEDAR STREET CEDAR ST, 315 JANE ELLEN HOPE MEMORIAL BUILDING - JEH","gsf":29130,"nsf":0,"latitude":41.302059,"longitude":-72.933483,"distance":99.0},{"site":"CEN","zone":"ZONE 2","buildingID":139,"facid":"1100","name":"HORCHOW HALL","abbr":"HRCH","address":"HILLHOUSE AVENUE, 55","searchable":"1100 HORCHOW HALL HILLHOUSE AVENUE, 55 PELATIAH PERIT HOUSE HORCHOW HALL HRCH 55 HILLHOUSE AVENUE HILLHOUSE AVE, 55 HORCHOW HALL","gsf":20921,"nsf":16485,"latitude":41.31543,"longitude":-72.922403,"distance":99.0},{"site":"MED","zone":"MEDICAL","buildingID":401,"facid":"3205","name":"HOWARD AVE GARAGE","abbr":"HAG","address":"HOWARD AVENUE, 790","searchable":"3205 HOWARD AVE GARAGE HOWARD AVENUE, 790  HOWARD AVENUE GARAGE HAG 790 HOWARD AVENUE HOWARD AVE, 790 HOWARD AVENUE GARAGE","gsf":220326,"nsf":0,"latitude":41.301841,"longitude":-72.936199,"distance":99.0},{"site":"MED","zone":"MEDICAL","buildingID":412,"facid":"3345","name":"HUNTER BLDG","abbr":"HRT","address":"YORK STREET,  15","searchable":"3345 HUNTER BLDG YORK STREET,  15  HUNTER BUILDING HRT 15 YORK STREET YORK ST,  15 HUNTER BUILDING","gsf":36355,"nsf":0,"latitude":41.303408,"longitude":-72.935088,"distance":99.0},{"site":"CEN","zone":"ZONE 2","buildingID":92,"facid":"0925","name":"INGALLS RINK","abbr":"IR","address":"SACHEM STREET, 73","searchable":"0925 INGALLS RINK SACHEM STREET, 73  INGALLS RINK, DAVID S. IR 73 SACHEM STREET SACHEM ST, 73 INGALLS RINK","gsf":75969,"nsf":67638,"latitude":41.316764,"longitude":-72.925103,"distance":99.0},{"site":"CEN","zone":"ZONE 1","buildingID":121,"facid":"1035","name":"J.W. GIBBS LABS","abbr":"JWG","address":"WHITNEY AVENUE, 260","searchable":"1035 J.W. GIBBS LABS WHITNEY AVENUE, 260  GIBBS LABORATORY, JOSIAH WILLARD JWG 260 WHITNEY AVENUE WHITNEY AVE, 260 J.W. GIBBS LABORATORY","gsf":106033,"nsf":98015,"latitude":41.317413,"longitude":-72.921748,"distance":99.0},{"site":"CEN","zone":"ZONE 4","buildingID":344,"facid":"2510","name":"JONATHAN EDWARDS COL","abbr":"JE","address":"HIGH STREET, 68","searchable":"2510 JONATHAN EDWARDS COL HIGH STREET, 68  EDWARDS COLLEGE, JONATHAN JE 68 HIGH STREET HIGH ST, 68 JONATHAN EDWARDS COLLEGE - JE","gsf":122968,"nsf":90343,"latitude":41.309104,"longitude":-72.930527,"distance":99.0},{"site":"CEN","zone":"ZONE 2","buildingID":215,"facid":"1515","name":"KIRTLAND HALL","abbr":"K","address":"HILLHOUSE AVENUE,  2","searchable":"1515 KIRTLAND HALL HILLHOUSE AVENUE,  2  KIRTLAND HALL, JARED P. K 2 HILLHOUSE AVENUE HILLHOUSE AVE,  2 KIRTLAND HALL","gsf":23049,"nsf":18360,"latitude":41.311865,"longitude":-72.924646,"distance":99.0},{"site":"CEN","zone":"ZONE 1","buildingID":135,"facid":"1080","name":"KLINE BIOLOGY TOWER","abbr":"KBT","address":"PROSPECT STREET, 219","searchable":"1080 KLINE BIOLOGY TOWER PROSPECT STREET, 219  KLINE BIOLOGY TOWER, C. MAHLON KBT 219 PROSPECT STREET PROSPECT ST, 219 KLINE BIOLOGY TOWER - KBT","gsf":207245,"nsf":179132,"latitude":41.317218,"longitude":-72.922686,"distance":99.0},{"site":"CEN","zone":"ZONE 1","buildingID":137,"facid":"1090","name":"KLINE CHEMISTRY LAB","abbr":"KCL","address":"PROSPECT STREET, 255","searchable":"1090 KLINE CHEMISTRY LAB PROSPECT STREET, 255  KLINE CHEMISTRY LABORATORY, C. MAHLON KCL 255 PROSPECT STREET PROSPECT ST, 255 KLINE CHEMISTRY LAB -  KCL","gsf":79863,"nsf":69195,"latitude":41.318843,"longitude":-72.922714,"distance":99.0},{"site":"CEN","zone":"ZONE 1","buildingID":122,"facid":"1040","name":"KLINE GEOLOGY LAB","abbr":"KGL","address":"WHITNEY AVENUE, 210","searchable":"1040 KLINE GEOLOGY LAB WHITNEY AVENUE, 210  KLINE GEOLOGY LABORATORY, C. MAHLON KGL 210 WHITNEY AVENUE WHITNEY AVE, 210 KLINE GEOLOGY LAB - KGL","gsf":118452,"nsf":105430,"latitude":41.316541,"longitude":-72.92106,"distance":99.0},{"site":"CEN","zone":"ZONE 1","buildingID":4792,"facid":"1067","name":"KROON HALL","abbr":"KRN","address":"PROSPECT STREET, 195","searchable":"1067 KROON HALL PROSPECT STREET, 195  KROON HALL KRN 195 PROSPECT STREET PROSPECT ST, 195 ","gsf":52635,"nsf":41896,"latitude":41.316783,"longitude":-72.92342,"distance":99.0},{"site":"MED","zone":"MEDICAL","buildingID":410,"facid":"3335","name":"LAB FOR MEDIC, PEDIAT","abbr":"LMP","address":"YORK STREET,  15","searchable":"3335 LAB FOR MEDIC, PEDIAT YORK STREET,  15  LABORATORY FOR MEDICINE AND PEDIATRICS LMP 15 YORK STREET YORK ST,  15 LAB FOR MEDICINE AND PEDIATRICS - LMP","gsf":58160,"nsf":0,"latitude":41.303192,"longitude":-72.935311,"distance":99.0},{"site":"MED","zone":"MEDICAL","buildingID":403,"facid":"3300","name":"LAB FOR SUR, OBST, GYN","abbr":"LSOG","address":"CONGRESS AVENUE, 375","searchable":"3300 LAB FOR SUR, OBST, GYN CONGRESS AVENUE, 375  LABORATORY FOR SURGERY, OBSTETRICS AND GYNECOLOGY LSOG 375 CONGRESS AVENUE CONGRESS AVE, 375 LAB FOR SURGERY, OBSTETRICS \u0026 GYNECOLOGY - LSOG","gsf":91774,"nsf":0,"latitude":41.301663,"longitude":-72.934951,"distance":99.0},{"site":"MED","zone":"MEDICAL","buildingID":397,"facid":"3155","name":"LAB OF EPIDEM, PUBHL","abbr":"LEPH","address":"COLLEGE STREET,  60","searchable":"3155 LAB OF EPIDEM, PUBHL COLLEGE STREET,  60  LABORATORY OF EPIDEMIOLOGY AND PUBLIC HEALTH LEPH 60 COLLEGE STREET COLLEGE ST,  60 LAB OF EPIDEMIOLOGY AND PUBLIC HEALTH - LEPH","gsf":116529,"nsf":0,"latitude":41.303706,"longitude":-72.932262,"distance":99.0},{"site":"CEN","zone":"ZONE 3","buildingID":349,"facid":"2600","name":"LANMAN-WRIGHT HALL","abbr":"LWR","address":"ELM STREET, 206","searchable":"2600 LANMAN-WRIGHT HALL ELM STREET, 206  LANMAN-WRIGHT HALL LWR 206 ELM STREET ELM ST, 206 LANMAN-WRIGHT HALL","gsf":65410,"nsf":51099,"latitude":41.309735,"longitude":-72.928692,"distance":99.0},{"site":"MED","zone":"MEDICAL","buildingID":418,"facid":"3380","name":"LAUDER HALL","abbr":"LH","address":"CEDAR STREET, 310","searchable":"3380 LAUDER HALL CEDAR STREET, 310  LAUDER HALL LH 310 CEDAR STREET CEDAR ST, 310 LAUDER HALL - LH","gsf":36040,"nsf":0,"latitude":41.3019,"longitude":-72.934203,"distance":99.0},{"site":"CEN","zone":"ZONE 3","buildingID":353,"facid":"2620","name":"LAWRANCE HALL,THOMAS","abbr":"L","address":"COLLEGE STREET, 358","searchable":"2620 LAWRANCE HALL,THOMAS COLLEGE STREET, 358  LAWRANCE HALL, THOMAS G. L 358 COLLEGE STREET COLLEGE ST, 358 THOMAS LAWRANCE HALL","gsf":37139,"nsf":27343,"latitude":41.308676,"longitude":-72.927996,"distance":99.0},{"site":"CEN","zone":"ZONE 2","buildingID":213,"facid":"1505","name":"LEET OLIVER MEM HALL","abbr":"LOM","address":"HILLHOUSE AVENUE, 12","searchable":"1505 LEET OLIVER MEM HALL HILLHOUSE AVENUE, 12  LEET OLIVER MEMORIAL HALL LOM 12 HILLHOUSE AVENUE HILLHOUSE AVE, 12 LEET OLIVER MEMORIAL HALL","gsf":21153,"nsf":16275,"latitude":41.312687,"longitude":-72.924334,"distance":99.0},{"site":"CEN","zone":"ZONE 3","buildingID":263,"facid":"1950","name":"LEIGH HALL","abbr":"LGH","address":"COLLEGE STREET, 435","searchable":"1950 LEIGH HALL COLLEGE STREET, 435 COLLEGE ST, 435/UG ADMIS/UNIV HEALTH CTR LEIGH HALL, ABBY AND MITCH LGH 435 COLLEGE STREET COLLEGE ST, 435 ABBY AND MITCH LEIGH HALL","gsf":28471,"nsf":21326,"latitude":41.309852,"longitude":-72.926412,"distance":99.0},{"site":"CEN","zone":"ZONE 3","buildingID":361,"facid":"2660","name":"LINSLY-CHITTENDEN","abbr":"LC","address":"HIGH STREET, 63","searchable":"2660 LINSLY-CHITTENDEN HIGH STREET, 63 LINSLY HALL, CHITTENDEN HALL LINSLY CHITTENDEN HALL LC 63 HIGH STREET HIGH ST, 63 LINSLY CHITTENDEN HALL - LC","gsf":59028,"nsf":46119,"latitude":41.308569,"longitude":-72.929557,"distance":99.0},{"site":"MED","zone":"MEDICAL","buildingID":409,"facid":"3330","name":"LIPPARD LAB CLIN INVEST","abbr":"LLCI","address":"YORK STREET,  15","searchable":"3330 LIPPARD LAB CLIN INVEST YORK STREET,  15  LIPPARD LABORATORY FOR CLINICAL INVESTIGATION LLCI 15 YORK STREET YORK ST,  15 LIPPARD LAB FOR CLINICAL INVESTIGATION - LLCI","gsf":90589,"nsf":0,"latitude":41.30319,"longitude":-72.93569,"distance":99.0},{"site":"CEN","zone":"ZONE 2","buildingID":174,"facid":"1255","name":"LUCE HALL, HENRY R.","abbr":"LUCE","address":"HILLHOUSE AVENUE, 34","searchable":"1255 LUCE HALL, HENRY R. HILLHOUSE AVENUE, 34  LUCE HALL, HENRY R. LUCE 34 HILLHOUSE AVENUE HILLHOUSE AVE, 34 HENRY LUCE HALL","gsf":32040,"nsf":27387,"latitude":41.314402,"longitude":-72.924341,"distance":99.0},{"site":"MED","zone":"MEDICAL","buildingID":391,"facid":"3120","name":"M.S. HARKNESS MEM AUD","abbr":"MHMA","address":"CEDAR STREET, 333","searchable":"3120 M.S. HARKNESS MEM AUD CEDAR STREET, 333  HARKNESS MEMORIAL AUDITORIUM, MARY S. MHMA 333 CEDAR STREET CEDAR ST, 333 MAY HARKNESS MEMORIAL AUDITORIUM - MHMA","gsf":13762,"nsf":0,"latitude":41.303418,"longitude":-72.933816,"distance":99.0},{"site":"MED","zone":"MEDICAL","buildingID":408,"facid":"3325","name":"MAGNETIC RESONANCE CTR","abbr":"MRC","address":"HOWARD AVENUE, 789","searchable":"3325 MAGNETIC RESONANCE CTR HOWARD AVENUE, 789  MAGNETIC RESONANCE CENTER MRC 789 HOWARD AVENUE HOWARD AVE, 789 MAGNETIC RESONANCE CENTER - MRC","gsf":27430,"nsf":0,"latitude":41.302922,"longitude":-72.935719,"distance":99.0},{"site":"CEN","zone":"ZONE 1","buildingID":4750,"facid":"1540","name":"MALONE ENGIN CENTER","abbr":"MEC","address":"PROSPECT STREET,  55","searchable":"1540 MALONE ENGIN CENTER PROSPECT STREET,  55  MALONE ENGINEERING CENTER, DANIEL L. MEC 55 PROSPECT STREET PROSPECT ST,  55 ","gsf":64786,"nsf":55627,"latitude":41.313348,"longitude":-72.924858,"distance":99.0},{"site":"CEN","zone":"ZONE 1","buildingID":228,"facid":"1630","name":"MASON LAB","abbr":"ML","address":"HILLHOUSE AVENUE,  9","searchable":"1630 MASON LAB HILLHOUSE AVENUE,  9  MASON LABORATORY ML 9 HILLHOUSE AVENUE HILLHOUSE AVE,  9 MASON LAB","gsf":68573,"nsf":57363,"latitude":41.312108,"longitude":-72.923669,"distance":99.0},{"site":"CEN","zone":"ZONE 3","buildingID":358,"facid":"2645","name":"MCCLELLAN HALL,EDWIN","abbr":"EM","address":"CHAPEL STREET, 1037","searchable":"2645 MCCLELLAN HALL,EDWIN CHAPEL STREET, 1037  MCCLELLAN HALL, EDWIN EM 1037 CHAPEL STREET CHAPEL ST, 1037 MCCLELLAN HALL","gsf":21747,"nsf":17849,"latitude":41.30827,"longitude":-72.929339,"distance":99.0},{"site":"CEN","zone":"ZONE 4","buildingID":283,"facid":"2100","name":"MORSE COLLEGE","abbr":"MC","address":"YORK STREET, 304","searchable":"2100 MORSE COLLEGE YORK STREET, 304  MORSE COLLEGE, SAMUEL F. B. MC 304 YORK STREET YORK ST, 304 MORSE COLLEGE - 304 YORK - MC","gsf":144045,"nsf":116151,"latitude":41.312639,"longitude":-72.930124,"distance":99.0},{"site":"MED","zone":"MEDICAL","buildingID":393,"facid":"3130","name":"NATHAN SMITH BLDG","abbr":"NSB","address":"CEDAR STREET, 333","searchable":"3130 NATHAN SMITH BLDG CEDAR STREET, 333  NATHAN SMITH BUILDING NSB 333 CEDAR STREET CEDAR ST, 333 NATHAN SMITH BUILDING - NSB","gsf":17740,"nsf":0,"latitude":41.303611,"longitude":-72.934532,"distance":99.0},{"site":"MED","zone":"MEDICAL","buildingID":4729,"facid":"3180","name":"NIESON, IRVING HARRIS BLD","abbr":"NIHB","address":"SOUTH FRONTAGE ROAD, 230","searchable":"3180 NIESON, IRVING HARRIS BLD SOUTH FRONTAGE ROAD, 230  NIESON \u0026 IRVING HARRIS BUILDING NIHB 230 SOUTH FRONTAGE ROAD S FRONTAGE RD, 230 ","gsf":24985,"nsf":0,"latitude":41.304207,"longitude":-72.933492,"distance":99.0},{"site":"CEN","zone":"ZONE 1","buildingID":128,"facid":"1055","name":"OSBORN MEMORIAL LAB","abbr":"OML","address":"PROSPECT STREET, 165","searchable":"1055 OSBORN MEMORIAL LAB PROSPECT STREET, 165  OSBORN MEMORIAL LABORATORIES OML 165 PROSPECT STREET PROSPECT ST, 165 OSBORN MEMORIAL LAB - OML","gsf":108910,"nsf":81854,"latitude":41.316402,"longitude":-72.923796,"distance":99.0},{"site":"CEN","zone":"ZONE 4","buildingID":339,"facid":"2480","name":"PARK ST, 211","abbr":"PARK211","address":"PARK STREET, 211","searchable":"2480 PARK ST, 211 PARK STREET, 211 CHI PSI PARK STREET, 211 PARK211 211 PARK STREET PARK ST, 211 ","gsf":14540,"nsf":11658,"latitude":41.309407,"longitude":-72.932877,"distance":99.0},{"site":"CEN","zone":"ZONE 4","buildingID":340,"facid":"2485","name":"PARK ST, 215","abbr":"PARK215","address":"PARK STREET, 215","searchable":"2485 PARK ST, 215 PARK STREET, 215 ALPHA DELTA PHI PARK STREET, 215 PARK215 215 PARK STREET PARK ST, 215 ","gsf":10034,"nsf":7994,"latitude":41.309241,"longitude":-72.932397,"distance":99.0},{"site":"CEN","zone":"ZONE 4","buildingID":341,"facid":"2490","name":"PARK ST, 217","abbr":"PARK217","address":"PARK STREET, 217","searchable":"2490 PARK ST, 217 PARK STREET, 217 PHI GAMMA DELTA PARK STREET, 217 PARK217 217 PARK STREET PARK ST, 217 CABARET","gsf":11409,"nsf":8952,"latitude":41.309578,"longitude":-72.932691,"distance":99.0},{"site":"CEN","zone":"ZONE 4","buildingID":206,"facid":"1440","name":"PAYNE WHITNEY GYM","abbr":"PWG","address":"TOWER PARKWAY, 70","searchable":"1440 PAYNE WHITNEY GYM TOWER PARKWAY, 70  WHITNEY GYMNASIUM, PAYNE PWG 70 TOWER PARKWAY TOWER PKWY, 70 PAYNE WHITNEY GYMNASIUM - PWG","gsf":535971,"nsf":429203,"latitude":41.313769,"longitude":-72.930945,"distance":99.0},{"site":"CEN","zone":"ZONE 1","buildingID":123,"facid":"1045","name":"PEABODY MUSEUM","abbr":"PM","address":"WHITNEY AVENUE, 170","searchable":"1045 PEABODY MUSEUM WHITNEY AVENUE, 170  PEABODY MUSEUM OF NATURAL HISTORY, GEORGE PM 170 WHITNEY AVENUE WHITNEY AVE, 170 PEABODY MUSEUM OF NATURAL HISTORY","gsf":88468,"nsf":70951,"latitude":41.315971,"longitude":-72.921142,"distance":99.0},{"site":"CEN","zone":"ZONE 3","buildingID":354,"facid":"2625","name":"PHELPS HALL","abbr":"PHELPS","address":"COLLEGE STREET, 344","searchable":"2625 PHELPS HALL COLLEGE STREET, 344  PHELPS HALL PHELPS 344 COLLEGE STREET COLLEGE ST, 344 PHELPS HALL - PH","gsf":27818,"nsf":16316,"latitude":41.308412,"longitude":-72.928206,"distance":99.0},{"site":"CEN","zone":"ZONE 4","buildingID":325,"facid":"2425","name":"PIERSON COLLEGE","abbr":"PC","address":"PARK STREET, 261","searchable":"2425 PIERSON COLLEGE PARK STREET, 261  PIERSON COLLEGE, ABRAHAM PC 261 PARK STREET PARK ST, 261 PIERSON COLLEGE - PC","gsf":174906,"nsf":135394,"latitude":41.310049,"longitude":-72.932166,"distance":99.0},{"site":"CEN","zone":"ZONE 1","buildingID":114,"facid":"1015","name":"PIERSON-SAGE GARAGE","abbr":"PSPG","address":"WHITNEY AVENUE, 280","searchable":"1015 PIERSON-SAGE GARAGE WHITNEY AVENUE, 280  PIERSON - SAGE PARKING GARAGE PSPG 280 WHITNEY AVENUE WHITNEY AVE, 280 PIERSON-SAGE PARKING GARAGE - PIERSAGEPK","gsf":206329,"nsf":196757,"latitude":41.31943,"longitude":-72.920275,"distance":99.0},{"site":"MED","zone":"MEDICAL","buildingID":404,"facid":"3305","name":"PRIMARY CARE CENTER","abbr":"PCC","address":"HOWARD AVENUE, 789","searchable":"3305 PRIMARY CARE CENTER HOWARD AVENUE, 789  PRIMARY CARE CENTER PCC 789 HOWARD AVENUE HOWARD AVE, 789 PRIMARY CARE CENTER - PCC","gsf":0,"nsf":0,"latitude":41.302043,"longitude":-72.93496,"distance":99.0},{"site":"CEN","zone":"ZONE 2","buildingID":173,"facid":"1250","name":"PROSPECT ST, 77","abbr":"PROS077","address":"PROSPECT STREET,  77","searchable":"1250 PROSPECT ST, 77 PROSPECT STREET,  77  PROSPECT STREET,  77 PROS077 77 PROSPECT STREET PROSPECT ST,  77 ","gsf":21887,"nsf":17531,"latitude":41.313967,"longitude":-72.924613,"distance":99.0},{"site":"CEN","zone":"OUTSOURCE","buildingID":90,"facid":"0921","name":"PROSPECT ST,202","abbr":"PROS202","address":"PROSPECT STREET, 202","searchable":"0921 PROSPECT ST,202 PROSPECT STREET, 202 DR. THEODORE T. MUNGER HSE PROSPECT STREET, 202 PROS202 202 PROSPECT STREET PROSPECT ST, 202 ","gsf":7394,"nsf":6432,"latitude":41.317246,"longitude":-72.924357,"distance":99.0},{"site":"CEN","zone":"ZONE 2","buildingID":89,"facid":"0920","name":"PROSPECT ST,204","abbr":"PROS204","address":"PROSPECT STREET, 204","searchable":"0920 PROSPECT ST,204 PROSPECT STREET, 204  PROSPECT STREET, 204 PROS204 204 PROSPECT STREET PROSPECT ST, 204 ","gsf":7545,"nsf":6129,"latitude":41.31739,"longitude":-72.924313,"distance":99.0},{"site":"CEN","zone":"ZONE 2","buildingID":88,"facid":"0915","name":"PROSPECT ST,210","abbr":"PROS210","address":"PROSPECT STREET, 210","searchable":"0915 PROSPECT ST,210 PROSPECT STREET, 210  PROSPECT STREET, 210 PROS210 210 PROSPECT STREET PROSPECT ST, 210 ","gsf":8344,"nsf":6648,"latitude":41.317557,"longitude":-72.924276,"distance":99.0},{"site":"CEN","zone":"ZONE 2","buildingID":87,"facid":"0910","name":"PROSPECT ST,230","abbr":"PROS230","address":"PROSPECT STREET, 230","searchable":"0910 PROSPECT ST,230 PROSPECT STREET, 230 LUZAN B. MORRIS HSE PROSPECT STREET, 230 PROS230 230 PROSPECT STREET PROSPECT ST, 230 ","gsf":8549,"nsf":7102,"latitude":41.318107,"longitude":-72.924139,"distance":99.0},